[
  {
    "id": "1",
    "name": "KADIKÖY SALI PAZARI",
    "city": "İSTANBUL",
    "district": "KADIKÖY",
    "barrier": "BARİYER",
    "latitude": "40.9904",
    "longitude": "29.0338"
  },
  {
    "id": "2",
    "name": "KANLICA-BARIŞ MANCO CADDESİ",
    "city": "İSTANBUL",
    "district": "BEYKOZ",
    "barrier": "TERMİNAL",
    "latitude": "41.0996",
    "longitude": "29.0659"
  },
  {
    "id": "3",
    "name": "KARTAL İDO AÇIK OTOPARKI",
    "city": "İSTANBUL",
    "district": "KARTAL",
    "barrier": "BARİYER",
    "latitude": "40.8874",
    "longitude": "29.1881"
  },
  {
    "id": "4",
    "name": "KARTAL SAHİL AÇIK OTOPARKI",
    "city": "İSTANBUL",
    "district": "KARTAL",
    "barrier": "BARİYER",
    "latitude": "40.8875",
    "longitude": "29.1901"
  },
  {
    "id": "5",
    "name": "KARTAL SAVARONA CADDESİ",
    "city": "İSTANBUL",
    "district": "KARTAL",
    "barrier": "TERMİNAL",
    "latitude": "40.8871",
    "longitude": "29.1833"
  },
  {
    "id": "6",
    "name": "BOSTANCI AÇIK",
    "city": "İSTANBUL",
    "district": "KADIKÖY",
    "barrier": "BARİYER",
    "latitude": "40.9523",
    "longitude": "29.0902"
  },
  {
    "id": "8",
    "name": "PENDİK KATLI",
    "city": "İSTANBUL",
    "district": "PENDİK",
    "barrier": "BARİYER",
    "latitude": "40.8789",
    "longitude": "29.2342"
  },
  {
    "id": "9",
    "name": "BOSTANCI SAHİL-CEP",
    "city": "İSTANBUL",
    "district": "KADIKÖY",
    "barrier": "BARİYER",
    "latitude": "40.9545",
    "longitude": "29.0885"
  },
  {
    "id": "10",
    "name": "KARTAL ÜSKÜDAR CADDESİ",
    "city": "İSTANBUL",
    "district": "KARTAL",
    "barrier": "TERMİNAL",
    "latitude": "40.8892",
    "longitude": "29.183"
  },
  {
    "id": "11",
    "name": "KADIKÖY RIHTIM PTT ÖNÜ",
    "city": "İSTANBUL",
    "district": "KADIKÖY",
    "barrier": "TERMİNAL",
    "latitude": "40.9896",
    "longitude": "29.0219"
  },
  {
    "id": "12",
    "name": "ALEMDAĞ CADDESİ",
    "city": "İSTANBUL",
    "district": "ÜMRANİYE",
    "barrier": "TERMİNAL",
    "latitude": "41.0254",
    "longitude": "29.0989"
  },
  {
    "id": "13",
    "name": "ÜSKÜDAR DR. FAHRİ ATABEY CD.",
    "city": "İSTANBUL",
    "district": "ÜSKÜDAR",
    "barrier": "TERMİNAL",
    "latitude": "41.0214",
    "longitude": "29.0169"
  },
  {
    "id": "14",
    "name": "ÜSKÜDAR HAKİMİYETİ MİLLİYE CD.",
    "city": "İSTANBUL",
    "district": "ÜSKÜDAR",
    "barrier": "TERMİNAL",
    "latitude": "41.0249",
    "longitude": "29.0158"
  },
  {
    "id": "15",
    "name": "PENDİK LOKMAN HEKİM CADDESİ",
    "city": "İSTANBUL",
    "district": "PENDİK",
    "barrier": "TERMİNAL",
    "latitude": "40.88",
    "longitude": "29.2351"
  },
  {
    "id": "16",
    "name": "KALAMIŞ AÇIK OTOPARKI",
    "city": "İSTANBUL",
    "district": "KADIKÖY",
    "barrier": "BARİYER",
    "latitude": "40.969036",
    "longitude": "29.036073"
  },
  {
    "id": "17",
    "name": "ATAŞEHİR BULVARI",
    "city": "İSTANBUL",
    "district": "ATAŞEHİR",
    "barrier": "TERMİNAL",
    "latitude": "40.993629954093194",
    "longitude": "29.127635335581857"
  },
  {
    "id": "18",
    "name": "KARTAL HÜRRİYET CADDESİ",
    "city": "İSTANBUL",
    "district": "KARTAL",
    "barrier": "TERMİNAL",
    "latitude": "40.99303080905916",
    "longitude": "29.127635210680683"
  },
  {
    "id": "19",
    "name": "SUADİYE CEP",
    "city": "İSTANBUL",
    "district": "KADIKÖY",
    "barrier": "BARİYER",
    "latitude": "40.9588268755771",
    "longitude": "29.07254152600935"
  },
  {
    "id": "20",
    "name": "POYRAZ YOL ÜSTÜ",
    "city": "İSTANBUL",
    "district": "KADIKÖY",
    "barrier": "TERMİNAL",
    "latitude": "40.99215267509291",
    "longitude": "29.04242478538316"
  },
  {
    "id": "21",
    "name": "MİSBAH SOKAK",
    "city": "İSTANBUL",
    "district": "KADIKÖY",
    "barrier": "TERMİNAL",
    "latitude": "40.9892",
    "longitude": "29.022"
  },
  {
    "id": "22",
    "name": "BOSTANCI VERGİ DAİRESİ AÇIK OTOPARKI",
    "city": "İSTANBUL",
    "district": "ATAŞEHİR",
    "barrier": "BARİYER",
    "latitude": "40.962639896761566",
    "longitude": "29.10794082496328"
  },
  {
    "id": "23",
    "name": "ÜMRANİYE KATLI OTOPARKI",
    "city": "İSTANBUL",
    "district": "ÜMRANİYE",
    "barrier": "BARİYER",
    "latitude": "41.026119503136336",
    "longitude": "29.095392154949973"
  },
  {
    "id": "24",
    "name": "KARTAL ELİT SOKAK",
    "city": "İSTANBUL",
    "district": "KARTAL",
    "barrier": "TERMİNAL",
    "latitude": "40.8905",
    "longitude": "29.1893"
  },
  {
    "id": "25",
    "name": "KAZIM ÖZALP SK.",
    "city": "İSTANBUL",
    "district": "KADIKÖY",
    "barrier": "TERMİNAL",
    "latitude": "40.95884827796399",
    "longitude": "29.07255636931042"
  },
  {
    "id": "26",
    "name": "ÜMRANİYE BOSNA BULVARI",
    "city": "İSTANBUL",
    "district": "ÜMRANİYE",
    "barrier": "TERMİNAL",
    "latitude": "41.0248",
    "longitude": "29.0847"
  },
  {
    "id": "27",
    "name": "KADIKÖY İSKİ AÇIK OTOPARKI",
    "city": "İSTANBUL",
    "district": "KADIKÖY",
    "barrier": "BARİYER",
    "latitude": "40.9874",
    "longitude": "29.0207"
  },
  {
    "id": "28",
    "name": "HİDİV KASRI",
    "city": "İSTANBUL",
    "district": "BEYKOZ",
    "barrier": "TERMİNAL",
    "latitude": "41.10312191552688",
    "longitude": "29.0752188711638"
  },
  {
    "id": "29",
    "name": "KÜÇÜK ÇAMLICA",
    "city": "İSTANBUL",
    "district": "ÜSKÜDAR",
    "barrier": "BARİYER",
    "latitude": "41.02808321940282",
    "longitude": "29.069810192931357"
  },
  {
    "id": "30",
    "name": "HALDUN ALAGAŞ",
    "city": "İSTANBUL",
    "district": "ÜMRANİYE",
    "barrier": "BARİYER",
    "latitude": "41.02611549698994",
    "longitude": "29.105357626247255"
  },
  {
    "id": "31",
    "name": "PENDİK SAHİL İDO",
    "city": "İSTANBUL",
    "district": "PENDİK",
    "barrier": "BARİYER",
    "latitude": "40.88935827436262",
    "longitude": "29.186841667702417"
  },
  {
    "id": "32",
    "name": "KARTAL BALIKÇILAR",
    "city": "İSTANBUL",
    "district": "KARTAL",
    "barrier": "TERMİNAL",
    "latitude": "40.8869064",
    "longitude": "29.1893016"
  },
  {
    "id": "33",
    "name": "KOZYATAĞI SEBZE-MEYVE HALİ",
    "city": "İSTANBUL",
    "district": "ATAŞEHİR",
    "barrier": "TERMİNAL",
    "latitude": "40.97733990006215",
    "longitude": "29.103823171163803"
  },
  {
    "id": "34",
    "name": "KADIKÖY AÇIK OTOPARKI",
    "city": "İSTANBUL",
    "district": "KADIKÖY",
    "barrier": "BARİYER",
    "latitude": "40.9909",
    "longitude": "29.0215"
  },
  {
    "id": "35",
    "name": "ŞEMSİPAŞA AÇIK OTOPARKI",
    "city": "İSTANBUL",
    "district": "ÜSKÜDAR",
    "barrier": "BARİYER",
    "latitude": "41.02551686308099",
    "longitude": "29.00972225620957"
  },
  {
    "id": "36",
    "name": "KARTAL HASAN DOĞAN SPOR KOMPLEKSİ",
    "city": "İSTANBUL",
    "district": "KARTAL",
    "barrier": "BARİYER",
    "latitude": "40.89206196693214",
    "longitude": "29.189755851277962"
  },
  {
    "id": "37",
    "name": "İÇERENKÖY SEBZE MEYVE HALİ OTOPARKI",
    "city": "İSTANBUL",
    "district": "ATAŞEHİR",
    "barrier": "TERMİNAL",
    "latitude": "40.977330919686615",
    "longitude": "29.10384462316118"
  },
  {
    "id": "38",
    "name": "YEŞİLVADİ SOKAK/KARTAL SOKAK",
    "city": "İSTANBUL",
    "district": "ATAŞEHİR",
    "barrier": "TERMİNAL",
    "latitude": "40.96882140331171",
    "longitude": "29.103337803411513"
  },
  {
    "id": "39",
    "name": "TUZLA İDO AÇIK OTOPARKI",
    "city": "İSTANBUL",
    "district": "TUZLA",
    "barrier": "BARİYER",
    "latitude": "40.81528100103391",
    "longitude": "29.303182950305846"
  },
  {
    "id": "40",
    "name": "ACIBADEM YOL ÜSTÜ OTOPARKI",
    "city": "İSTANBUL",
    "district": "ÜSKÜDAR",
    "barrier": "TERMİNAL",
    "latitude": "41.0410102607952",
    "longitude": "29.065099945626148"
  },
  {
    "id": "41",
    "name": "BÜLENT ECEVİT KÜLTÜR MERKEZİ AÇIK OTOPARKI",
    "city": "İSTANBUL",
    "district": "KARTAL",
    "barrier": "BARİYER",
    "latitude": "40.884979097215655",
    "longitude": "29.1980703120559"
  },
  {
    "id": "42",
    "name": "BÜYÜK ÇAMLICA KORUSU SOSYAL TESİSLERİ ÖNÜ",
    "city": "İSTANBUL",
    "district": "ÜSKÜDAR",
    "barrier": "BARİYER",
    "latitude": "41.028069760792825",
    "longitude": "29.069800281902555"
  },
  {
    "id": "43",
    "name": "KADIKÖY EĞİTİM MAHALLESİ AÇIK OTOPARKI",
    "city": "İSTANBUL",
    "district": "KADIKÖY",
    "barrier": "TERMİNAL",
    "latitude": "40.992144803083825",
    "longitude": "29.04239920910863"
  },
  {
    "id": "44",
    "name": "KÜÇÜKSU CADDESİ",
    "city": "İSTANBUL",
    "district": "BEYKOZ",
    "barrier": "TERMİNAL",
    "latitude": "41.07850908171621",
    "longitude": "29.06554193585474"
  },
  {
    "id": "45",
    "name": "DALYAN PARKI AÇIK OTOPARK",
    "city": "İSTANBUL",
    "district": "KADIKÖY",
    "barrier": "BARİYER",
    "latitude": "40.9632",
    "longitude": "29.0651"
  },
  {
    "id": "46",
    "name": "YALI AÇIK OTOPARKI",
    "city": "İSTANBUL",
    "district": "MALTEPE",
    "barrier": "BARİYER",
    "latitude": "40.9095",
    "longitude": "29.137"
  },
  {
    "id": "47",
    "name": "ATAŞEHİR UMUT SOKAK AÇIK OTOPARKI",
    "city": "İSTANBUL",
    "district": "ATAŞEHİR",
    "barrier": "TERMİNAL",
    "latitude": "40.972863",
    "longitude": "29.10263"
  },
  {
    "id": "48",
    "name": "ÜMRANİYE AFİYET HASTANESİ ÖNÜ",
    "city": "İSTANBUL",
    "district": "ÜMRANİYE",
    "barrier": "TERMİNAL",
    "latitude": "41.02406393576165",
    "longitude": "29.08405405059528"
  },
  {
    "id": "49",
    "name": "ALBAY FAİK SÖZDENER(MODA YOKUŞU)",
    "city": "İSTANBUL",
    "district": "KADIKÖY",
    "barrier": "TERMİNAL",
    "latitude": "40.99093621644868",
    "longitude": "29.02148849048599"
  },
  {
    "id": "50",
    "name": "PENDİK ANKARA CADDESİ",
    "city": "İSTANBUL",
    "district": "PENDİK",
    "barrier": "TERMİNAL",
    "latitude": "40.8771",
    "longitude": "29.2358"
  },
  {
    "id": "51",
    "name": "PAŞALİMANI SOSYAL TESİSLERİ ÖNÜ",
    "city": "İSTANBUL",
    "district": "ÜSKÜDAR",
    "barrier": "TERMİNAL",
    "latitude": "41.0334",
    "longitude": "29.025"
  },
  {
    "id": "52",
    "name": "PAŞALİMANI CADDESİ",
    "city": "İSTANBUL",
    "district": "ÜSKÜDAR",
    "barrier": "TERMİNAL",
    "latitude": "41.0323",
    "longitude": "29.0233"
  },
  {
    "id": "55",
    "name": "MALTEPE RIHTIM CADDESİ",
    "city": "İSTANBUL",
    "district": "MALTEPE",
    "barrier": "TERMİNAL",
    "latitude": "40.9238",
    "longitude": "29.1263"
  },
  {
    "id": "56",
    "name": "ÇENGELKÖY AÇIK OTOPARKI",
    "city": "İSTANBUL",
    "district": "ÜSKÜDAR",
    "barrier": "BARİYER",
    "latitude": "41.048892382053104",
    "longitude": "29.053413086899372"
  },
  {
    "id": "57",
    "name": "KALAMIŞ FENER CADDESİ",
    "city": "İSTANBUL",
    "district": "KADIKÖY",
    "barrier": "TERMİNAL",
    "latitude": "40.97107622947134",
    "longitude": "29.038715826801184"
  },
  {
    "id": "58",
    "name": "MÜNİR NURETTİN SELÇUK CADDESİ",
    "city": "İSTANBUL",
    "district": "KADIKÖY",
    "barrier": "TERMİNAL",
    "latitude": "40.9801",
    "longitude": "29.039"
  },
  {
    "id": "59",
    "name": "SABİHA GÖKÇEN AÇIK OTOPARKI",
    "city": "İSTANBUL",
    "district": "PENDİK",
    "barrier": "BARİYER",
    "latitude": "40.9252944623745",
    "longitude": "29.307134963481474"
  },
  {
    "id": "60",
    "name": "CADDEBOSTAN AÇIK OTOPARKI",
    "city": "İSTANBUL",
    "district": "KADIKÖY",
    "barrier": "BARİYER",
    "latitude": "40.96356638572961",
    "longitude": "29.067522574650333"
  },
  {
    "id": "61",
    "name": "GÜLSUYU METRO YER ALTI OTOPARKI",
    "city": "İSTANBUL",
    "district": "MALTEPE",
    "barrier": "BARİYER",
    "latitude": "40.9237",
    "longitude": "29.1548"
  },
  {
    "id": "62",
    "name": "KADIKÖY METRO AÇIK OTOPARKI",
    "city": "İSTANBUL",
    "district": "KADIKÖY",
    "barrier": "BARİYER",
    "latitude": "40.9899",
    "longitude": "29.0217"
  },
  {
    "id": "63",
    "name": "ATAŞEHİR IHLAMUR SOKAK",
    "city": "İSTANBUL",
    "district": "ATAŞEHİR",
    "barrier": "TERMİNAL",
    "latitude": "40.990337",
    "longitude": "29.10582"
  },
  {
    "id": "64",
    "name": "ACIBADEM AÇIK OTOPARKI",
    "city": "İSTANBUL",
    "district": "ÜSKÜDAR",
    "barrier": "BARİYER",
    "latitude": "41.015783",
    "longitude": "29.0575555"
  },
  {
    "id": "65",
    "name": "ÜSKÜDAR ÜNALAN AÇIK OTOPARKI",
    "city": "İSTANBUL",
    "district": "ÜSKÜDAR",
    "barrier": "BARİYER",
    "latitude": "40.999096",
    "longitude": "29.057387"
  },
  {
    "id": "66",
    "name": "SOĞANLIK METRO PD AÇIK OTOPARKI",
    "city": "İSTANBUL",
    "district": "KARTAL",
    "barrier": "BARİYER",
    "latitude": "40.913383",
    "longitude": "29.192885"
  },
  {
    "id": "67",
    "name": "KÜÇÜKSU KASRI AÇIK OTOPARKI",
    "city": "İSTANBUL",
    "district": "BEYKOZ",
    "barrier": "BARİYER",
    "latitude": "41.078703",
    "longitude": "29.065603"
  },
  {
    "id": "68",
    "name": "MALTEPE ORHANGAZİ ŞEHİR PARKI AÇIK OTOPARKI",
    "city": "İSTANBUL",
    "district": "MALTEPE",
    "barrier": "BARİYER",
    "latitude": "40.941482",
    "longitude": "29.110563"
  },
  {
    "id": "69",
    "name": "YAYLA SANAT MERKEZİ AÇIK OTOPARKI",
    "city": "İSTANBUL",
    "district": "MALTEPE",
    "barrier": "BARİYER",
    "latitude": "40.927526",
    "longitude": "29.122932"
  },
  {
    "id": "70",
    "name": "PENDIK MARINA ÖNÜ",
    "city": "İSTANBUL",
    "district": "PENDİK",
    "barrier": "TERMİNAL",
    "latitude": "40.8731519",
    "longitude": "29.2335984"
  },
  {
    "id": "71",
    "name": "PENDİK SAHİL ENGELLİLER MERKEZ ÖNÜ",
    "city": "İSTANBUL",
    "district": "PENDİK",
    "barrier": "BARİYER",
    "latitude": "40.8735",
    "longitude": "29.233"
  },
  {
    "id": "72",
    "name": "KADIKÖY METRO YOL ÜSTÜ",
    "city": "İSTANBUL",
    "district": "KADIKÖY",
    "barrier": "TERMİNAL",
    "latitude": "40.987923",
    "longitude": "29.020771"
  },
  {
    "id": "73",
    "name": "PENDİK DR.ORHAN MALTEPE CADDESİ",
    "city": "İSTANBUL",
    "district": "PENDİK",
    "barrier": "TERMİNAL",
    "latitude": "40.8773",
    "longitude": "29.2306"
  },
  {
    "id": "74",
    "name": "DR. ADNAN BÜYÜKDENİZ CADDESİ",
    "city": "İSTANBUL",
    "district": "ÜMRANİYE",
    "barrier": "TERMİNAL",
    "latitude": "41.035322",
    "longitude": "29.120294"
  },
  {
    "id": "75",
    "name": "ALTUNİZADE AÇIK OTOPARK",
    "city": "İSTANBUL",
    "district": "ÜSKÜDAR",
    "barrier": "TERMİNAL",
    "latitude": "41.024594",
    "longitude": "29.039417"
  },
  {
    "id": "76",
    "name": "GÖZDAĞI SOSYAL TESİSLER AÇIK OTOPARK",
    "city": "İSTANBUL",
    "district": "PENDİK",
    "barrier": "BARİYER",
    "latitude": "40.890345",
    "longitude": "29.253525"
  },
  {
    "id": "77",
    "name": "DRAGOS SOSYAL TESİSLERİ",
    "city": "İSTANBUL",
    "district": "KARTAL",
    "barrier": "BARİYER",
    "latitude": "40.902238",
    "longitude": "29.14608"
  },
  {
    "id": "78",
    "name": "BEYKOZ SOSYAL TESİSLERİ",
    "city": "İSTANBUL",
    "district": "BEYKOZ",
    "barrier": "BARİYER",
    "latitude": "41.1143",
    "longitude": "29.0888"
  },
  {
    "id": "79",
    "name": "FETHİPAŞA KORUSU",
    "city": "İSTANBUL",
    "district": "ÜSKÜDAR",
    "barrier": "TERMİNAL",
    "latitude": "41.0322",
    "longitude": "29.0259"
  },
  {
    "id": "80",
    "name": "CEVİZLİ AÇIK OTOPARKI",
    "city": "İSTANBUL",
    "district": "KARTAL",
    "barrier": "BARİYER",
    "latitude": "40.918023",
    "longitude": "29.171139"
  },
  {
    "id": "81",
    "name": "HAYDARPAŞA KATLI OTOPARKI",
    "city": "İSTANBUL",
    "district": "ÜSKÜDAR",
    "barrier": "BARİYER",
    "latitude": "41.00484",
    "longitude": "29.025087"
  },
  {
    "id": "82",
    "name": "ALTUNİZADE AKSOY SOKAK",
    "city": "İSTANBUL",
    "district": "ÜSKÜDAR",
    "barrier": "TERMİNAL",
    "latitude": "40.99919",
    "longitude": "29.057478"
  },
  {
    "id": "83",
    "name": "UZUNÇAYIR AÇIK OTOPARKI 1",
    "city": "İSTANBUL",
    "district": "KADIKÖY",
    "barrier": "BARİYER",
    "latitude": "40.9988",
    "longitude": "29.0577"
  },
  {
    "id": "84",
    "name": "PENDİK ADNAN KAHVECİ METRO AÇIK OTOPARKI",
    "city": "İSTANBUL",
    "district": "PENDİK",
    "barrier": "TERMİNAL",
    "latitude": "40.895035",
    "longitude": "29.227474"
  },
  {
    "id": "85",
    "name": "SULTANBEYLİ KENT MEYDANI ZEMİN ALTI OTOPARKI",
    "city": "İSTANBUL",
    "district": "SULTANBEYLİ",
    "barrier": "BARİYER",
    "latitude": "40.965971",
    "longitude": "29.266284"
  },
  {
    "id": "86",
    "name": "UZUNÇAYIR AÇIK OTOPARKI",
    "city": "İSTANBUL",
    "district": "KADIKÖY",
    "barrier": "BARİYER",
    "latitude": "40.9988",
    "longitude": "29.0556"
  },
  {
    "id": "87",
    "name": "ÜMRANİYE DR. FAZIL KÜÇÜK CADDESİ",
    "city": "İSTANBUL",
    "district": "ÜMRANİYE",
    "barrier": "TERMİNAL",
    "latitude": "41.0269",
    "longitude": "29.1127"
  },
  {
    "id": "88",
    "name": "PENDİK YENİMAHALLE AÇIK 2 OTOPARKI",
    "city": "İSTANBUL",
    "district": "PENDİK",
    "barrier": "BARİYER",
    "latitude": "40.864",
    "longitude": "29.2723"
  },
  {
    "id": "89",
    "name": "KADIKÖY YEKTA SOKAK - GÖZTEPE E 5 YANI",
    "city": "İSTANBUL",
    "district": "KADIKÖY",
    "barrier": "TERMİNAL",
    "latitude": "40.9903",
    "longitude": "29.0761"
  },
  {
    "id": "90",
    "name": "SULTANBEYLİ EMİR CADDESİ ZEMİN ALTI OTOPARKI",
    "city": "İSTANBUL",
    "district": "SULTANBEYLİ",
    "barrier": "BARİYER",
    "latitude": "40.970713",
    "longitude": "29.261243"
  },
  {
    "id": "91",
    "name": "KADIKÖY METRO 2 AÇIK OTOPARKI",
    "city": "İSTANBUL",
    "district": "KADIKÖY",
    "barrier": "BARİYER",
    "latitude": "40.988245",
    "longitude": "29.020761"
  },
  {
    "id": "92",
    "name": "ATAŞEHİR HALK CADDESİ - PALLADIUM AVM",
    "city": "İSTANBUL",
    "district": "ATAŞEHİR",
    "barrier": "TERMİNAL",
    "latitude": "40.9865",
    "longitude": "29.0992"
  },
  {
    "id": "93",
    "name": "KADIKÖY YENİ SALI PAZARI KATLI OTOPARKI",
    "city": "İSTANBUL",
    "district": "KADIKÖY",
    "barrier": "BARİYER",
    "latitude": "40.998523",
    "longitude": "29.050384"
  },
  {
    "id": "94",
    "name": "PENDİK YENİŞEHİR MUSTAFA AKYOL SOKAK",
    "city": "İSTANBUL",
    "district": "PENDİK",
    "barrier": "ABONE",
    "latitude": "40.9247406123058",
    "longitude": "29.308308939195967"
  },
  {
    "id": "95",
    "name": "ÜMRANİYE TOYA SOKAK",
    "city": "İSTANBUL",
    "district": "ÜMRANİYE",
    "barrier": "TERMİNAL",
    "latitude": "41.02633186929187",
    "longitude": "29.10489462992208"
  },
  {
    "id": "96",
    "name": "ÜMRANİYE OKAN SOKAK ZEMİNALTI OTOPARKI",
    "city": "İSTANBUL",
    "district": "ÜMRANİYE",
    "barrier": "BARİYER",
    "latitude": "41.02823141789957",
    "longitude": "29.09069603082268"
  },
  {
    "id": "97",
    "name": "KADIKÖY HASANPAŞA GAZHANE KATLI OTOPARKI",
    "city": "İSTANBUL",
    "district": "KADIKÖY",
    "barrier": "BARİYER",
    "latitude": "40.997225659720485",
    "longitude": "29.04294530179141"
  },
  {
    "id": "98",
    "name": "KARTAL SAVARONA SAHİL CEP",
    "city": "İSTANBUL",
    "district": "KARTAL",
    "barrier": "TERMİNAL",
    "latitude": "40.88659885131613",
    "longitude": "29.18401468516795"
  },
  {
    "id": "99",
    "name": "SUADİYE SAHİL AÇIK",
    "city": "İSTANBUL",
    "district": "KADIKÖY",
    "barrier": "BARİYER",
    "latitude": "40.959639290608195",
    "longitude": "29.0737389999478"
  },
  {
    "id": "100",
    "name": "KADIKÖY SAHİL AÇIK",
    "city": "İSTANBUL",
    "district": "KADIKÖY",
    "barrier": "BARİYER",
    "latitude": "40.98997787533143",
    "longitude": "29.018543361486447"
  },
  {
    "id": "101",
    "name": "BEYKOZ SAHİL CEP",
    "city": "İSTANBUL",
    "district": "BEYKOZ",
    "barrier": "BARİYER",
    "latitude": "41.1293734968991",
    "longitude": "29.094688564379496"
  },
  {
    "id": "102",
    "name": "PENDİK KEMAL KALKUZ PARKI ZEMİN ALTI OTOPARKI",
    "city": "İSTANBUL",
    "district": "PENDİK",
    "barrier": "BARİYER",
    "latitude": "40.888532702576946",
    "longitude": "29.242639800928465"
  },
  {
    "id": "103",
    "name": "KALAMIŞ PARKI YOL ÜSTÜ",
    "city": "İSTANBUL",
    "district": "KADIKÖY",
    "barrier": "TERMİNAL",
    "latitude": "40.971095225489805",
    "longitude": "29.0386988324251"
  },
  {
    "id": "104",
    "name": "PENDİK MARİNA ÖNÜ AÇIK OTOPARKI",
    "city": "İSTANBUL",
    "district": "PENDİK",
    "barrier": "BARİYER",
    "latitude": "40.8731519",
    "longitude": "29.2335984"
  },
  {
    "id": "105",
    "name": "BEYKOZ PAZARYERİ AÇIK OTOPARKI",
    "city": "İSTANBUL",
    "district": "BEYKOZ",
    "barrier": "TERMİNAL",
    "latitude": "41.13949275967153",
    "longitude": "29.086265337440242"
  },
  {
    "id": "106",
    "name": "MALTEPE KARAVANPARK AÇIK OTOPARKI",
    "city": "İSTANBUL",
    "district": "MALTEPE",
    "barrier": "TERMİNAL",
    "latitude": "40.92637020755216",
    "longitude": "29.12318542712558"
  },
  {
    "id": "107",
    "name": "PENDİK MEYDAN ZEMİN ALTI OTOPARKI",
    "city": "İSTANBUL",
    "district": "PENDİK",
    "barrier": "BARİYER",
    "latitude": "40.872810234410565",
    "longitude": "29.23165661858399"
  },
  {
    "id": "108",
    "name": "ÇEKMEKÖY METRO ZEMİNALTI PD OTOPARKI",
    "city": "İSTANBUL",
    "district": "ÇEKMEKÖY",
    "barrier": "BARİYER",
    "latitude": "41.01466619645105",
    "longitude": "29.18821757116367"
  },
  {
    "id": "109",
    "name": "KADIKÖY KALAMIŞ PARKI AÇIK OTOPARKI",
    "city": "İSTANBUL",
    "district": "KADIKÖY",
    "barrier": "TERMİNAL",
    "latitude": "40.968194324523886",
    "longitude": "29.042572238736415"
  },
  {
    "id": "110",
    "name": "TUZLA SAHİL ZEMİN ALTI OTOPARKI",
    "city": "İSTANBUL",
    "district": "TUZLA",
    "barrier": "BARİYER",
    "latitude": "40.818248539578505",
    "longitude": "29.30049223496978"
  },
  {
    "id": "111",
    "name": "DUDULLU METRO ZEMİNALTI PD OTOPARKI",
    "city": "İSTANBUL",
    "district": "ÜMRANİYE",
    "barrier": "BARİYER",
    "latitude": "41.01563914285159",
    "longitude": "29.162429500000002"
  },
  {
    "id": "112",
    "name": "15 TEMMUZ ŞEHİTLER MEYDANI ZEMİNALTI OTOPARKI",
    "city": "İSTANBUL",
    "district": "ÜMRANİYE",
    "barrier": "BARİYER",
    "latitude": "41.024718864708724",
    "longitude": "29.09105974233001"
  },
  {
    "id": "113",
    "name": "KADIKÖY BORA SOKAK",
    "city": "İSTANBUL",
    "district": "KADIKÖY",
    "barrier": "TERMİNAL",
    "latitude": "40.9904",
    "longitude": "29.0753"
  },
  {
    "id": "114",
    "name": "ATAŞEHİR FEZA SOKAK",
    "city": "İSTANBUL",
    "district": "ATAŞEHİR",
    "barrier": "TERMİNAL",
    "latitude": "40.99370054896465",
    "longitude": "29.125722671165008"
  },
  {
    "id": "115",
    "name": "ATAŞEHİR BEGONYA SOKAK",
    "city": "İSTANBUL",
    "district": "ATAŞEHİR",
    "barrier": "TERMİNAL",
    "latitude": "41.0008",
    "longitude": "29.1008"
  },
  {
    "id": "116",
    "name": "ATAŞEHİR BAŞAK CENGİZ SOKAK",
    "city": "İSTANBUL",
    "district": "ATAŞEHİR",
    "barrier": "TERMİNAL",
    "latitude": "41.000111",
    "longitude": "29.102694"
  },
  {
    "id": "117",
    "name": "ATAŞEHİR ARDIÇ SOKAK 1",
    "city": "İSTANBUL",
    "district": "ATAŞEHİR",
    "barrier": "TERMİNAL",
    "latitude": "40.997",
    "longitude": "29.104194"
  },
  {
    "id": "118",
    "name": "ATAŞEHİR ARDIÇ SOKAK 2",
    "city": "İSTANBUL",
    "district": "ATAŞEHİR",
    "barrier": "TERMİNAL",
    "latitude": "40.999111",
    "longitude": "29.101389"
  },
  {
    "id": "119",
    "name": "ATAŞEHİR ATİLLA İLHAN CADDESİ",
    "city": "İSTANBUL",
    "district": "ATAŞEHİR",
    "barrier": "TERMİNAL",
    "latitude": "40.984389",
    "longitude": "29.111111"
  },
  {
    "id": "120",
    "name": "ATAŞEHİR DEFNE SOKAK",
    "city": "İSTANBUL",
    "district": "ATAŞEHİR",
    "barrier": "TERMİNAL",
    "latitude": "40.980806",
    "longitude": "29.103694"
  },
  {
    "id": "121",
    "name": "ATAŞEHİR FESLEĞEN SOKAK",
    "city": "İSTANBUL",
    "district": "ATAŞEHİR",
    "barrier": "TERMİNAL",
    "latitude": "40.990889",
    "longitude": "29.109"
  },
  {
    "id": "122",
    "name": "ATAŞEHİR IŞIKLAR CADDESİ",
    "city": "İSTANBUL",
    "district": "ATAŞEHİR",
    "barrier": "TERMİNAL",
    "latitude": "40.984241453188226",
    "longitude": "29.112799513495013"
  },
  {
    "id": "123",
    "name": "ATAŞEHİR MOR SÜMBÜL SOKAK",
    "city": "İSTANBUL",
    "district": "ATAŞEHİR",
    "barrier": "TERMİNAL",
    "latitude": "40.995306",
    "longitude": "29.100389"
  },
  {
    "id": "124",
    "name": "ATAŞEHİR ŞEBBOY SOKAK",
    "city": "İSTANBUL",
    "district": "ATAŞEHİR",
    "barrier": "TERMİNAL",
    "latitude": "40.994917",
    "longitude": "29.105194"
  },
  {
    "id": "125",
    "name": "ATAŞEHİR AHLAT SOKAK",
    "city": "İSTANBUL",
    "district": "ATAŞEHİR",
    "barrier": "TERMİNAL",
    "latitude": "40.998889",
    "longitude": "29.099389"
  },
  {
    "id": "126",
    "name": "MİMAR SİNAN ZEMİNALTI OTOPARKI",
    "city": "İSTANBUL",
    "district": "ÜSKÜDAR",
    "barrier": "BARİYER",
    "latitude": "41.0222275888499",
    "longitude": "29.01688301746511"
  },
  {
    "id": "127",
    "name": "ATAŞEHİR IŞIKLAR CADDESİ 2",
    "city": "İSTANBUL",
    "district": "ATAŞEHİR",
    "barrier": "TERMİNAL",
    "latitude": "40.984667",
    "longitude": "29.111583"
  },
  {
    "id": "128",
    "name": "ATAŞEHİR TOPÇU İBRAHİM SOKAK",
    "city": "İSTANBUL",
    "district": "ATAŞEHİR",
    "barrier": "TERMİNAL",
    "latitude": "40.974333",
    "longitude": "29.100889"
  },
  {
    "id": "129",
    "name": "ATAŞEHİR ERKUT SOKAK",
    "city": "İSTANBUL",
    "district": "ATAŞEHİR",
    "barrier": "TERMİNAL",
    "latitude": "40.972833",
    "longitude": "29.103583"
  },
  {
    "id": "130",
    "name": "ATAŞEHİR TURGUT ÖZAL BULVARI",
    "city": "İSTANBUL",
    "district": "ATAŞEHİR",
    "barrier": "TERMİNAL",
    "latitude": "40.993070394156724",
    "longitude": "29.127621633405667"
  },
  {
    "id": "131",
    "name": "KADIKÖY METRO YOL ÜSTÜ 2",
    "city": "İSTANBUL",
    "district": "KADIKÖY",
    "barrier": "TERMİNAL",
    "latitude": "40.98955342302223",
    "longitude": "29.020933038988982"
  },
  {
    "id": "132",
    "name": "ATAŞEHİR AL ZAMBAK SOKAK",
    "city": "İSTANBUL",
    "district": "ATAŞEHİR",
    "barrier": "TERMİNAL",
    "latitude": "41.001111",
    "longitude": "29.104472"
  },
  {
    "id": "133",
    "name": "RÜZGARLIBAHÇE ŞIK SOKAK",
    "city": "İSTANBUL",
    "district": "BEYKOZ",
    "barrier": "TERMİNAL",
    "latitude": "41.09460764662342",
    "longitude": "29.09869241150034"
  },
  {
    "id": "134",
    "name": "MALTEPE RIHTIM CADDESİ AÇIK OTOPARKI",
    "city": "İSTANBUL",
    "district": "MALTEPE",
    "barrier": "BARİYER",
    "latitude": "40.9258",
    "longitude": "29.1241"
  },
  {
    "id": "135",
    "name": "GÜLSUYU METRO YOL ÜSTÜ",
    "city": "İSTANBUL",
    "district": "MALTEPE",
    "barrier": "TERMİNAL",
    "latitude": "40.92344324672367",
    "longitude": "29.155810113495026"
  },
  {
    "id": "136",
    "name": "SABİHA GÖKÇEN AÇIK OTOPARKI 2",
    "city": "İSTANBUL",
    "district": "PENDİK",
    "barrier": "TERMİNAL",
    "latitude": "40.92470425941891",
    "longitude": "29.308328940944236"
  },
  {
    "id": "137",
    "name": "BEYKOZ ÇUBUKLU AÇIK OTOPARKI",
    "city": "İSTANBUL",
    "district": "BEYKOZ",
    "barrier": "TERMİNAL",
    "latitude": "41.11143375078047",
    "longitude": "29.084683416473965"
  },
  {
    "id": "138",
    "name": "PENDİK SAHİL YOL ÜSTÜ",
    "city": "İSTANBUL",
    "district": "PENDİK",
    "barrier": "TERMİNAL",
    "latitude": "40.87279210705558",
    "longitude": "29.23167090326003"
  },
  {
    "id": "139",
    "name": "KARTAL ATALAR AÇIK OTOPARKI",
    "city": "İSTANBUL",
    "district": "KARTAL",
    "barrier": "TERMİNAL",
    "latitude": "40.8985",
    "longitude": "29.170889"
  },
  {
    "id": "140",
    "name": "MALTEPE SAHİL CEP 1",
    "city": "İSTANBUL",
    "district": "MALTEPE",
    "barrier": "TERMİNAL",
    "latitude": "40.913389",
    "longitude": "29.133194"
  },
  {
    "id": "141",
    "name": "MALTEPE SAHİL CEP 2",
    "city": "İSTANBUL",
    "district": "MALTEPE",
    "barrier": "TERMİNAL",
    "latitude": "40.912",
    "longitude": "29.134444"
  },
  {
    "id": "142",
    "name": "TUZLA SAHİL CEP",
    "city": "İSTANBUL",
    "district": "TUZLA",
    "barrier": "TERMİNAL",
    "latitude": "40.817583",
    "longitude": "29.302778"
  },
  {
    "id": "143",
    "name": "ATATÜRK BULVARI 1",
    "city": "İSTANBUL",
    "district": "FATİH",
    "barrier": "TERMİNAL",
    "latitude": "41.02018064851675",
    "longitude": "28.959467626250134"
  },
  {
    "id": "144",
    "name": "BALMUMCU AÇIK",
    "city": "İSTANBUL",
    "district": "BEŞİKTAŞ",
    "barrier": "TERMİNAL",
    "latitude": "41.062",
    "longitude": "29.010611"
  },
  {
    "id": "145",
    "name": "BEBEK AÇIK",
    "city": "İSTANBUL",
    "district": "BEŞİKTAŞ",
    "barrier": "BARİYER",
    "latitude": "41.07691774616428",
    "longitude": "29.043537172013"
  },
  {
    "id": "146",
    "name": "İMÇ",
    "city": "İSTANBUL",
    "district": "FATİH",
    "barrier": "TERMİNAL",
    "latitude": "41.019083",
    "longitude": "28.958528"
  },
  {
    "id": "147",
    "name": "KARAKÖY MEYDAN",
    "city": "İSTANBUL",
    "district": "BEYOĞLU",
    "barrier": "TERMİNAL",
    "latitude": "41.02588",
    "longitude": "28.97992"
  },
  {
    "id": "148",
    "name": "KARAKÖY P.PAZARI",
    "city": "İSTANBUL",
    "district": "BEYOĞLU",
    "barrier": "TERMİNAL",
    "latitude": "41.02269",
    "longitude": "28.97263"
  },
  {
    "id": "149",
    "name": "MECİDİYEKÖY ORTAKLAR CAD.",
    "city": "İSTANBUL",
    "district": "ŞİŞLİ",
    "barrier": "TERMİNAL",
    "latitude": "41.065278",
    "longitude": "28.997222"
  },
  {
    "id": "150",
    "name": "ŞİŞLİ ERGENEKON CAD.",
    "city": "İSTANBUL",
    "district": "ŞİŞLİ",
    "barrier": "TERMİNAL",
    "latitude": "41.049667",
    "longitude": "28.987417"
  },
  {
    "id": "151",
    "name": "ŞİŞLİ HÜSREV GEREDE CAD.",
    "city": "İSTANBUL",
    "district": "ŞİŞLİ",
    "barrier": "TERMİNAL",
    "latitude": "41.04812759745653",
    "longitude": "28.995243990610206"
  },
  {
    "id": "152",
    "name": "ŞİŞLİ MAÇKA CAD.",
    "city": "İSTANBUL",
    "district": "ŞİŞLİ",
    "barrier": "TERMİNAL",
    "latitude": "41.04840529727191",
    "longitude": "28.99027139126897"
  },
  {
    "id": "153",
    "name": "ŞİŞLİ TEŞVİKİYE CAD.",
    "city": "İSTANBUL",
    "district": "ŞİŞLİ",
    "barrier": "TERMİNAL",
    "latitude": "41.04979415592198",
    "longitude": "29.00067685766999"
  },
  {
    "id": "154",
    "name": "ŞİŞLİ VALİ KONAĞI CAD.",
    "city": "İSTANBUL",
    "district": "ŞİŞLİ",
    "barrier": "TERMİNAL",
    "latitude": "41.055441398797136",
    "longitude": "28.995888654042478"
  },
  {
    "id": "155",
    "name": "KADIRGALAR",
    "city": "İSTANBUL",
    "district": "ŞİŞLİ",
    "barrier": "TERMİNAL",
    "latitude": "41.045730786991236",
    "longitude": "28.99096776177789"
  },
  {
    "id": "156",
    "name": "CİHANGİR KATLI",
    "city": "İSTANBUL",
    "district": "BEYOĞLU",
    "barrier": "BARİYER",
    "latitude": "41.03184805337942",
    "longitude": "28.985792425229867"
  },
  {
    "id": "157",
    "name": "ŞİŞLİ TAŞKIŞLA CADDESİ",
    "city": "İSTANBUL",
    "district": "ŞİŞLİ",
    "barrier": "TERMİNAL",
    "latitude": "41.0479",
    "longitude": "28.9913"
  },
  {
    "id": "158",
    "name": "ŞİŞLİ SİLAHŞÖR CADDESİ",
    "city": "İSTANBUL",
    "district": "ŞİŞLİ",
    "barrier": "TERMİNAL",
    "latitude": "41.0577609",
    "longitude": "28.9810029"
  },
  {
    "id": "159",
    "name": "BAKIRKÖY AÇIK",
    "city": "İSTANBUL",
    "district": "BAKIRKÖY",
    "barrier": "TERMİNAL",
    "latitude": "40.98358806687112",
    "longitude": "28.876010654910626"
  },
  {
    "id": "160",
    "name": "BALMUMCU KATLI",
    "city": "İSTANBUL",
    "district": "ŞİŞLİ",
    "barrier": "BARİYER",
    "latitude": "41.06385589715228",
    "longitude": "29.01105692916919"
  },
  {
    "id": "161",
    "name": "MERCAN AÇIK",
    "city": "İSTANBUL",
    "district": "FATİH",
    "barrier": "BARİYER",
    "latitude": "41.0200898579067",
    "longitude": "28.96354157320441"
  },
  {
    "id": "162",
    "name": "ŞİŞLİ ŞAKAYIK SOKAK",
    "city": "İSTANBUL",
    "district": "ŞİŞLİ",
    "barrier": "TERMİNAL",
    "latitude": "41.050908",
    "longitude": "28.9944498"
  },
  {
    "id": "163",
    "name": "BEBEK SAHİL YOLU",
    "city": "İSTANBUL",
    "district": "BEŞİKTAŞ",
    "barrier": "TERMİNAL",
    "latitude": "41.07552024304487",
    "longitude": "29.043330749544484"
  },
  {
    "id": "164",
    "name": "ORTAKÖY DEREBOYU CADDESİ",
    "city": "İSTANBUL",
    "district": "BEŞİKTAŞ",
    "barrier": "TERMİNAL",
    "latitude": "41.0513738",
    "longitude": "29.0244946"
  },
  {
    "id": "165",
    "name": "MÜSELLES SOK",
    "city": "İSTANBUL",
    "district": "ŞİŞLİ",
    "barrier": "TERMİNAL",
    "latitude": "41.0680376",
    "longitude": "29.0121038"
  },
  {
    "id": "166",
    "name": "MİM KEMAL ÖKE",
    "city": "İSTANBUL",
    "district": "ŞİŞLİ",
    "barrier": "TERMİNAL",
    "latitude": "41.0471105",
    "longitude": "28.9929368"
  },
  {
    "id": "167",
    "name": "ATATÜRK BULVARI 2",
    "city": "İSTANBUL",
    "district": "FATİH",
    "barrier": "TERMİNAL",
    "latitude": "41.020173591387795",
    "longitude": "28.959469575684825"
  },
  {
    "id": "168",
    "name": "SARIYER YENİMAHALLE CADDESİ",
    "city": "İSTANBUL",
    "district": "SARIYER",
    "barrier": "TERMİNAL",
    "latitude": "41.1681029",
    "longitude": "29.0570998"
  },
  {
    "id": "169",
    "name": "AHMET FETGERİ-CAMİİ SOKAK",
    "city": "İSTANBUL",
    "district": "ŞİŞLİ",
    "barrier": "TERMİNAL",
    "latitude": "41.0501",
    "longitude": "28.9942"
  },
  {
    "id": "170",
    "name": "IHLAMUR DERE CAD.",
    "city": "İSTANBUL",
    "district": "BEŞİKTAŞ",
    "barrier": "TERMİNAL",
    "latitude": "41.048752815152085",
    "longitude": "29.002486579818033"
  },
  {
    "id": "171",
    "name": "ORTABAHÇE CAD.",
    "city": "İSTANBUL",
    "district": "BEŞİKTAŞ",
    "barrier": "TERMİNAL",
    "latitude": "41.0426606",
    "longitude": "29.004409"
  },
  {
    "id": "172",
    "name": "19 MAYIS AÇIK",
    "city": "İSTANBUL",
    "district": "ŞİŞLİ",
    "barrier": "BARİYER",
    "latitude": "41.056608794648064",
    "longitude": "28.99455213615248"
  },
  {
    "id": "173",
    "name": "MASLAK G-39",
    "city": "İSTANBUL",
    "district": "SARIYER",
    "barrier": "TERMİNAL",
    "latitude": "41.1096",
    "longitude": "29.0204"
  },
  {
    "id": "174",
    "name": "KURTULUŞ CADDESİ",
    "city": "İSTANBUL",
    "district": "ŞİŞLİ",
    "barrier": "TERMİNAL",
    "latitude": "41.05238861613427",
    "longitude": "28.984419376937538"
  },
  {
    "id": "175",
    "name": "MİLLET CADDESİ AÇIK OTOPARKI",
    "city": "İSTANBUL",
    "district": "FATİH",
    "barrier": "BARİYER",
    "latitude": "41.013559",
    "longitude": "28.937089"
  },
  {
    "id": "176",
    "name": "ODAKULE ÖNÜ",
    "city": "İSTANBUL",
    "district": "BEYOĞLU",
    "barrier": "41.013559, 28.937089",
    "latitude": "41.032517298915344",
    "longitude": "28.974783770670687"
  },
  {
    "id": "177",
    "name": "DR.MÜFİDE KÜLEY SK",
    "city": "İSTANBUL",
    "district": "ŞİŞLİ",
    "barrier": "TERMİNAL",
    "latitude": "41.052278",
    "longitude": "28.995722"
  },
  {
    "id": "178",
    "name": "ZEYTİNBURNU 58.BULVAR",
    "city": "İSTANBUL",
    "district": "ZEYTİNBURNU",
    "barrier": "TERMİNAL",
    "latitude": "40.993281384884",
    "longitude": "28.903730977518812"
  },
  {
    "id": "179",
    "name": "NİSPETİYE CAD.",
    "city": "İSTANBUL",
    "district": "BEŞİKTAŞ",
    "barrier": "TERMİNAL",
    "latitude": "41.07573287153115",
    "longitude": "29.016978804128616"
  },
  {
    "id": "180",
    "name": "ŞEHİT VOLKAN DUYSAK KATLI OTOPARKI",
    "city": "İSTANBUL",
    "district": "ZEYTİNBURNU",
    "barrier": "BARİYER",
    "latitude": "40.99460357336664",
    "longitude": "28.904486002531332"
  },
  {
    "id": "181",
    "name": "KEMERALTI CADDESİ",
    "city": "İSTANBUL",
    "district": "BEYOĞLU",
    "barrier": "TERMİNAL",
    "latitude": "0",
    "longitude": "0"
  },
  {
    "id": "182",
    "name": "YEŞİLKÖY MARİNA",
    "city": "İSTANBUL",
    "district": "BAKIRKÖY",
    "barrier": "TERMİNAL",
    "latitude": "40.957591626339116",
    "longitude": "28.82236514546231"
  },
  {
    "id": "183",
    "name": "MENEKŞE PLAJI",
    "city": "İSTANBUL",
    "district": "BAKIRKÖY",
    "barrier": "BARİYER",
    "latitude": "40.95966362898172",
    "longitude": "28.8356444690672"
  },
  {
    "id": "184",
    "name": "BEŞİKTAŞ HALK PAZARI",
    "city": "İSTANBUL",
    "district": "BEŞİKTAŞ",
    "barrier": "BARİYER",
    "latitude": "41.04974522778975",
    "longitude": "29.000829961409398"
  },
  {
    "id": "185",
    "name": "SU TERAZİSİ SOKAK",
    "city": "İSTANBUL",
    "district": "FATİH",
    "barrier": "TERMİNAL",
    "latitude": "41.004583",
    "longitude": "28.972722"
  },
  {
    "id": "186",
    "name": "DOSTLUK YURDU SOKAK",
    "city": "İSTANBUL",
    "district": "FATİH",
    "barrier": "TERMİNAL",
    "latitude": "41.007028",
    "longitude": "28.972528"
  },
  {
    "id": "187",
    "name": "PİERLOTİ CADDESİ",
    "city": "İSTANBUL",
    "district": "FATİH",
    "barrier": "TERMİNAL",
    "latitude": "41.006194",
    "longitude": "28.969111"
  },
  {
    "id": "188",
    "name": "NAKİLBENT SOKAK",
    "city": "İSTANBUL",
    "district": "FATİH",
    "barrier": "TERMİNAL",
    "latitude": "41.00398148456731",
    "longitude": "28.974413131410554"
  },
  {
    "id": "189",
    "name": "KUTLUGÜN SOKAK",
    "city": "İSTANBUL",
    "district": "FATİH",
    "barrier": "TERMİNAL",
    "latitude": "41.00610706255146",
    "longitude": "28.9787518377585"
  },
  {
    "id": "190",
    "name": "İSHAKPAŞA CADDESİ",
    "city": "İSTANBUL",
    "district": "FATİH",
    "barrier": "TERMİNAL",
    "latitude": "41.006417",
    "longitude": "28.981583"
  },
  {
    "id": "191",
    "name": "KABASAKAL MEDRESE ÖNÜ",
    "city": "İSTANBUL",
    "district": "FATİH",
    "barrier": "TERMİNAL",
    "latitude": "41.006194",
    "longitude": "28.978889"
  },
  {
    "id": "192",
    "name": "GÜVENLİK CADDESİ",
    "city": "İSTANBUL",
    "district": "FATİH",
    "barrier": "TERMİNAL",
    "latitude": "41.00646165593039",
    "longitude": "28.957057421050767"
  },
  {
    "id": "193",
    "name": "HIZIR KÜLHANİ SOKAK",
    "city": "İSTANBUL",
    "district": "FATİH",
    "barrier": "TERMİNAL",
    "latitude": "41.020006273081634",
    "longitude": "28.96048696399975"
  },
  {
    "id": "194",
    "name": "RAGIP GÜMÜŞPALA CAD.(CAMİİ ÖNÜ)",
    "city": "İSTANBUL",
    "district": "FATİH",
    "barrier": "TERMİNAL",
    "latitude": "41.02009205555042",
    "longitude": "28.96354196087705"
  },
  {
    "id": "195",
    "name": "SİRKECİ GAR ÖNÜ",
    "city": "İSTANBUL",
    "district": "FATİH",
    "barrier": "TERMİNAL",
    "latitude": "41.01496307798563",
    "longitude": "28.976306939527216"
  },
  {
    "id": "196",
    "name": "YALI KÖŞKÜ CADDESİ",
    "city": "İSTANBUL",
    "district": "FATİH",
    "barrier": "TERMİNAL",
    "latitude": "41.01622660965893",
    "longitude": "28.97472728928936"
  },
  {
    "id": "197",
    "name": "SİYAVUŞPAŞA SOKAK",
    "city": "İSTANBUL",
    "district": "FATİH",
    "barrier": "TERMİNAL",
    "latitude": "41.01576336008243",
    "longitude": "28.960991201514837"
  },
  {
    "id": "198",
    "name": "KEPENEKÇİ YOKUŞU-ODUN KAPISI YOKUŞU SOKAK",
    "city": "İSTANBUL",
    "district": "FATİH",
    "barrier": "TERMİNAL",
    "latitude": "41.017389",
    "longitude": "28.966139"
  },
  {
    "id": "199",
    "name": "EBUSSUUD CADDESİ",
    "city": "İSTANBUL",
    "district": "FATİH",
    "barrier": "TERMİNAL",
    "latitude": "0",
    "longitude": "0"
  },
  {
    "id": "200",
    "name": "İMRAN ÖKTEM",
    "city": "İSTANBUL",
    "district": "FATİH",
    "barrier": "TERMİNAL",
    "latitude": "41.006917",
    "longitude": "28.973167"
  },
  {
    "id": "201",
    "name": "VATAN CADDESİ AÇIK OTOPARKI",
    "city": "İSTANBUL",
    "district": "FATİH",
    "barrier": "BARİYER",
    "latitude": "41.0157",
    "longitude": "28.9405"
  },
  {
    "id": "202",
    "name": "PEYKHANE CADDESİ",
    "city": "İSTANBUL",
    "district": "FATİH",
    "barrier": "TERMİNAL",
    "latitude": "41.015694",
    "longitude": "28.9405"
  },
  {
    "id": "203",
    "name": "TÜRBEDAR SOKAK",
    "city": "İSTANBUL",
    "district": "FATİH",
    "barrier": "TERMİNAL",
    "latitude": "41.009389",
    "longitude": "28.972611"
  },
  {
    "id": "204",
    "name": "KLOD FARER SOKAK",
    "city": "İSTANBUL",
    "district": "FATİH",
    "barrier": "TERMİNAL",
    "latitude": "41.007222",
    "longitude": "28.973278"
  },
  {
    "id": "205",
    "name": "EMİRGAN KORUSU",
    "city": "İSTANBUL",
    "district": "SARIYER",
    "barrier": "TERMİNAL",
    "latitude": "41.10546775295777",
    "longitude": "29.057078131453867"
  },
  {
    "id": "206",
    "name": "YILDIZ KORUSU",
    "city": "İSTANBUL",
    "district": "BEŞİKTAŞ",
    "barrier": "TERMİNAL",
    "latitude": "41.04475162684868",
    "longitude": "29.016131085949873"
  },
  {
    "id": "207",
    "name": "FESHANE PD AÇIK OTOPARKI",
    "city": "İSTANBUL",
    "district": "EYÜP",
    "barrier": "BARİYER",
    "latitude": "41.04560617164662",
    "longitude": "28.93731669560523"
  },
  {
    "id": "208",
    "name": "VEFA BAYIRI SOKAK",
    "city": "İSTANBUL",
    "district": "BEŞİKTAŞ",
    "barrier": "TERMİNAL",
    "latitude": "41.062722",
    "longitude": "29.008111"
  },
  {
    "id": "209",
    "name": "TAMBURİ ALİ EFENDİ",
    "city": "İSTANBUL",
    "district": "BEŞİKTAŞ",
    "barrier": "TERMİNAL",
    "latitude": "41.078694",
    "longitude": "29.030889"
  },
  {
    "id": "210",
    "name": "LEVENT ESNAF ÖNÜ",
    "city": "İSTANBUL",
    "district": "BEŞİKTAŞ",
    "barrier": "TERMİNAL",
    "latitude": "41.076",
    "longitude": "29.016694"
  },
  {
    "id": "211",
    "name": "LEVENT ÇARŞI",
    "city": "İSTANBUL",
    "district": "BEŞİKTAŞ",
    "barrier": "TERMİNAL",
    "latitude": "41.075806",
    "longitude": "29.015111"
  },
  {
    "id": "212",
    "name": "VEFABEY SOKAK",
    "city": "İSTANBUL",
    "district": "BEŞİKTAŞ",
    "barrier": "TERMİNAL",
    "latitude": "41.065722",
    "longitude": "29.004194"
  },
  {
    "id": "213",
    "name": "PRF. DR. AHMET KEMAL ARU CADDESİ",
    "city": "İSTANBUL",
    "district": "BEŞİKTAŞ",
    "barrier": "TERMİNAL",
    "latitude": "41.0815",
    "longitude": "29.012"
  },
  {
    "id": "214",
    "name": "KÜÇÜK AYASOFYA CADDESİ",
    "city": "İSTANBUL",
    "district": "FATİH",
    "barrier": "TERMİNAL",
    "latitude": "41.00395713958199",
    "longitude": "28.97437273015958"
  },
  {
    "id": "215",
    "name": "FUATPAŞA CADDESİ",
    "city": "İSTANBUL",
    "district": "FATİH",
    "barrier": "TERMİNAL",
    "latitude": "41.0126",
    "longitude": "28.966"
  },
  {
    "id": "216",
    "name": "FEVZİ PAŞA CADDESİ",
    "city": "İSTANBUL",
    "district": "FATİH",
    "barrier": "TERMİNAL",
    "latitude": "41.0168",
    "longitude": "28.9507"
  },
  {
    "id": "217",
    "name": "GÜNEŞ PLAJI 1",
    "city": "İSTANBUL",
    "district": "BAKIRKÖY",
    "barrier": "BARİYER",
    "latitude": "40.971194",
    "longitude": "28.79"
  },
  {
    "id": "218",
    "name": "GÜNEŞ PLAJI 2",
    "city": "İSTANBUL",
    "district": "BAKIRKÖY",
    "barrier": "BARİYER",
    "latitude": "40.969194",
    "longitude": "28.795111"
  },
  {
    "id": "219",
    "name": "FATİH SAMATYA SAHİL",
    "city": "İSTANBUL",
    "district": "FATİH",
    "barrier": "TERMİNAL",
    "latitude": "40.99895357453845",
    "longitude": "28.932815298664973"
  },
  {
    "id": "220",
    "name": "DUMLUPINAR CADDESİ",
    "city": "İSTANBUL",
    "district": "BAHÇELİEVLER",
    "barrier": "TERMİNAL",
    "latitude": "40.992111",
    "longitude": "28.843"
  },
  {
    "id": "221",
    "name": "ABİDE-İ HÜRRİYET CADDESİ",
    "city": "İSTANBUL",
    "district": "ŞİŞLİ",
    "barrier": "TERMİNAL",
    "latitude": "41.064483551938",
    "longitude": "28.987570392091815"
  },
  {
    "id": "222",
    "name": "HAMİDİYE",
    "city": "İSTANBUL",
    "district": "BEŞİKTAŞ",
    "barrier": "TERMİNAL",
    "latitude": "41.086111",
    "longitude": "29.007611"
  },
  {
    "id": "223",
    "name": "LEVENT ADLİYE ÖNÜ",
    "city": "İSTANBUL",
    "district": "ŞİŞLİ",
    "barrier": "TERMİNAL",
    "latitude": "41.0795",
    "longitude": "29.011806"
  },
  {
    "id": "224",
    "name": "VOYVODA CD.",
    "city": "İSTANBUL",
    "district": "BEYOĞLU",
    "barrier": "TERMİNAL",
    "latitude": "41.0227028",
    "longitude": "28.9722991"
  },
  {
    "id": "225",
    "name": "OKÇU MUSA CD.",
    "city": "İSTANBUL",
    "district": "BEYOĞLU",
    "barrier": "TERMİNAL",
    "latitude": "41.027111",
    "longitude": "28.971611"
  },
  {
    "id": "226",
    "name": "KASIM SOKAK",
    "city": "İSTANBUL",
    "district": "GÜNGÖREN",
    "barrier": "TERMİNAL",
    "latitude": "41.00954986004839",
    "longitude": "28.88770422039844"
  },
  {
    "id": "227",
    "name": "DÜNYA GÖZ HASTANESİ ÖNÜ",
    "city": "İSTANBUL",
    "district": "BEŞİKTAŞ",
    "barrier": "TERMİNAL",
    "latitude": "41.0725",
    "longitude": "29.018194"
  },
  {
    "id": "228",
    "name": "AVCILAR İDO",
    "city": "İSTANBUL",
    "district": "AVCILAR",
    "barrier": "BARİYER",
    "latitude": "40.9712",
    "longitude": "28.7185"
  },
  {
    "id": "229",
    "name": "YEŞİLKÖY İSTANBUL CAD.",
    "city": "İSTANBUL",
    "district": "BAKIRKÖY",
    "barrier": "TERMİNAL",
    "latitude": "40.95967277752282",
    "longitude": "28.835652287400087"
  },
  {
    "id": "230",
    "name": "YEŞİLKÖY İSTASYON CAD.",
    "city": "İSTANBUL",
    "district": "BAKIRKÖY",
    "barrier": "TERMİNAL",
    "latitude": "40.9620200338073",
    "longitude": "28.825564166515647"
  },
  {
    "id": "231",
    "name": "YEŞİLYURT ÇARŞI",
    "city": "İSTANBUL",
    "district": "BAKIRKÖY",
    "barrier": "TERMİNAL",
    "latitude": "40.964306",
    "longitude": "28.837889"
  },
  {
    "id": "232",
    "name": "YILDIZPOSTA CAD.",
    "city": "İSTANBUL",
    "district": "BEŞİKTAŞ",
    "barrier": "TERMİNAL",
    "latitude": "41.06387236604592",
    "longitude": "29.011063095347012"
  },
  {
    "id": "233",
    "name": "KIZTAŞI CAD.",
    "city": "İSTANBUL",
    "district": "FATİH",
    "barrier": "TERMİNAL",
    "latitude": "41.016194",
    "longitude": "28.950889"
  },
  {
    "id": "234",
    "name": "AKÇAM SOKAK (İŞ BANKASI ÖNÜ)",
    "city": "İSTANBUL",
    "district": "BEŞİKTAŞ",
    "barrier": "TERMİNAL",
    "latitude": "41.0866",
    "longitude": "29.0081"
  },
  {
    "id": "235",
    "name": "METROCİTY ÖNÜ",
    "city": "İSTANBUL",
    "district": "ŞİŞLİ",
    "barrier": "TERMİNAL",
    "latitude": "41.07645822948929",
    "longitude": "29.01389066846137"
  },
  {
    "id": "236",
    "name": "KARAKOL CAD.",
    "city": "İSTANBUL",
    "district": "BEŞİKTAŞ",
    "barrier": "TERMİNAL",
    "latitude": "41.075720880179155",
    "longitude": "29.01698636476148"
  },
  {
    "id": "237",
    "name": "İNÖNÜ CADDESİ",
    "city": "İSTANBUL",
    "district": "BEYOĞLU",
    "barrier": "TERMİNAL",
    "latitude": "41.0389080712276",
    "longitude": "28.988210522979504"
  },
  {
    "id": "238",
    "name": "ATAKÖY ATRİUM",
    "city": "İSTANBUL",
    "district": "BAKIRKÖY",
    "barrier": "BARİYER",
    "latitude": "40.987936855531146",
    "longitude": "28.84537554086898"
  },
  {
    "id": "239",
    "name": "MEVLANA YER ALTI OTOPARKI",
    "city": "İSTANBUL",
    "district": "ZEYTİNBURNU",
    "barrier": "BARİYER",
    "latitude": "41.007245553804204",
    "longitude": "28.904843769942303"
  },
  {
    "id": "240",
    "name": "FLORYA HAVUZLU BAHÇE",
    "city": "İSTANBUL",
    "district": "BAKIRKÖY",
    "barrier": "TERMİNAL",
    "latitude": "40.97636821851824",
    "longitude": "28.790781656929703"
  },
  {
    "id": "241",
    "name": "BEBEK ARNAVUTKÖY CADDESİ",
    "city": "İSTANBUL",
    "district": "BEŞİKTAŞ",
    "barrier": "TERMİNAL",
    "latitude": "41.066406288334974",
    "longitude": "29.04165056206442"
  },
  {
    "id": "242",
    "name": "İSTİNYE CD.",
    "city": "İSTANBUL",
    "district": "SARIYER",
    "barrier": "TERMİNAL",
    "latitude": "41.11401439051049",
    "longitude": "29.059361369762602"
  },
  {
    "id": "243",
    "name": "BAYRAMPAŞA SEBZE- MEYVE HALİ",
    "city": "İSTANBUL",
    "district": "BAYRAMPAŞA",
    "barrier": "TERMİNAL",
    "latitude": "41.0489773029216",
    "longitude": "28.885606584473315"
  },
  {
    "id": "244",
    "name": "MERTER KATLI OTOPARKI",
    "city": "İSTANBUL",
    "district": "GÜNGÖREN",
    "barrier": "BARİYER",
    "latitude": "41.0097",
    "longitude": "28.89"
  },
  {
    "id": "245",
    "name": "PROF. DR.CEMİL BİRSEL CAD.",
    "city": "İSTANBUL",
    "district": "FATİH",
    "barrier": "TERMİNAL",
    "latitude": "0",
    "longitude": "0"
  },
  {
    "id": "246",
    "name": "DERE SOKAK",
    "city": "İSTANBUL",
    "district": "ŞİŞLİ",
    "barrier": "TERMİNAL",
    "latitude": "0",
    "longitude": "0"
  },
  {
    "id": "247",
    "name": "PROF. DR. ORHAN ERSEK SOKAK",
    "city": "İSTANBUL",
    "district": "ŞİŞLİ",
    "barrier": "TERMİNAL",
    "latitude": "41.0516782",
    "longitude": "28.9946149"
  },
  {
    "id": "248",
    "name": "MERTER METRO PD AÇIK OTOPARKI",
    "city": "İSTANBUL",
    "district": "GÜNGÖREN",
    "barrier": "BARİYER",
    "latitude": "41.0074",
    "longitude": "28.8955"
  },
  {
    "id": "249",
    "name": "BAYRAMPAŞA NUMUNEBAĞI CAD.",
    "city": "İSTANBUL",
    "district": "BAYRAMPAŞA",
    "barrier": "TERMİNAL",
    "latitude": "41.0328",
    "longitude": "28.914"
  },
  {
    "id": "250",
    "name": "BAYRAMPAŞA ABDİ İPEKÇİ CD.",
    "city": "İSTANBUL",
    "district": "BAYRAMPAŞA",
    "barrier": "TERMİNAL",
    "latitude": "41.0368",
    "longitude": "28.9121"
  },
  {
    "id": "251",
    "name": "BAKIRKÖY İDO İSKELESİ ÖNÜ",
    "city": "İSTANBUL",
    "district": "BAKIRKÖY",
    "barrier": "BARİYER",
    "latitude": "40.9739",
    "longitude": "28.8761"
  },
  {
    "id": "252",
    "name": "BEYOĞLU BALIKÇILAR ÖNÜ",
    "city": "İSTANBUL",
    "district": "BEYOĞLU",
    "barrier": "TERMİNAL",
    "latitude": "41.0221",
    "longitude": "28.9739"
  },
  {
    "id": "253",
    "name": "HORHOR CADDESİ ÜZERİ CEP",
    "city": "İSTANBUL",
    "district": "FATİH",
    "barrier": "TERMİNAL",
    "latitude": "41.0142",
    "longitude": "28.9519"
  },
  {
    "id": "254",
    "name": "LEVENT BAĞLANTI YOLU",
    "city": "İSTANBUL",
    "district": "BEŞİKTAŞ",
    "barrier": "TERMİNAL",
    "latitude": "41.0797",
    "longitude": "29.0135"
  },
  {
    "id": "255",
    "name": "YENİKÖY KÖYBAŞI CADDESİ",
    "city": "İSTANBUL",
    "district": "SARIYER",
    "barrier": "TERMİNAL",
    "latitude": "41.1287",
    "longitude": "29.0665"
  },
  {
    "id": "256",
    "name": "ETYEMEZ TEKKESİ SOKAK",
    "city": "İSTANBUL",
    "district": "FATİH",
    "barrier": "TERMİNAL",
    "latitude": "41.004",
    "longitude": "28.9364"
  },
  {
    "id": "257",
    "name": "EYÜP PİYERLOTİ CADDESİ",
    "city": "İSTANBUL",
    "district": "EYÜP",
    "barrier": "TERMİNAL",
    "latitude": "41.0539",
    "longitude": "28.9329"
  },
  {
    "id": "258",
    "name": "ÖĞRETMEN EVİ",
    "city": "İSTANBUL",
    "district": "AVCILAR",
    "barrier": "BARİYER",
    "latitude": "40.9723",
    "longitude": "28.714"
  },
  {
    "id": "259",
    "name": "HAYDAR ALİYEV CADDESİ",
    "city": "İSTANBUL",
    "district": "SARIYER",
    "barrier": "TERMİNAL",
    "latitude": "41.144",
    "longitude": "29.0551"
  },
  {
    "id": "260",
    "name": "SEZA-İ SELEK CADDESİ",
    "city": "İSTANBUL",
    "district": "ŞİŞLİ",
    "barrier": "TERMİNAL",
    "latitude": "41.0542",
    "longitude": "28.995"
  },
  {
    "id": "261",
    "name": "FATİH KATLI OTOPARKI",
    "city": "İSTANBUL",
    "district": "FATİH",
    "barrier": "BARİYER",
    "latitude": "41.0198",
    "longitude": "28.9396"
  },
  {
    "id": "262",
    "name": "TATLICI KULELERİ ÖNÜ",
    "city": "İSTANBUL",
    "district": "ŞİŞLİ",
    "barrier": "TERMİNAL",
    "latitude": "41.0692",
    "longitude": "29.0144"
  },
  {
    "id": "263",
    "name": "BEŞİKTAŞ KADASTRO ÖNÜ",
    "city": "İSTANBUL",
    "district": "BEŞİKTAŞ",
    "barrier": "TERMİNAL",
    "latitude": "41.0503",
    "longitude": "29.0076"
  },
  {
    "id": "264",
    "name": "GONCA SOKAK",
    "city": "İSTANBUL",
    "district": "BEŞİKTAŞ",
    "barrier": "TERMİNAL",
    "latitude": "0",
    "longitude": "0"
  },
  {
    "id": "265",
    "name": "BEŞİKTAŞ PORTAKAL YOKUŞU",
    "city": "İSTANBUL",
    "district": "BEŞİKTAŞ",
    "barrier": "TERMİNAL",
    "latitude": "41.0503",
    "longitude": "29.0261"
  },
  {
    "id": "266",
    "name": "CİHANNUMA YOLÜSTÜ OTOPARKI",
    "city": "İSTANBUL",
    "district": "BEŞİKTAŞ",
    "barrier": "TERMİNAL",
    "latitude": "41.0454",
    "longitude": "29.0084"
  },
  {
    "id": "267",
    "name": "SELVİ SOKAK",
    "city": "İSTANBUL",
    "district": "BEŞİKTAŞ",
    "barrier": "TERMİNAL",
    "latitude": "41.0864",
    "longitude": "29.0082"
  },
  {
    "id": "268",
    "name": "MEYDAN OTOPARKI-AKÇAM SOKAK",
    "city": "İSTANBUL",
    "district": "BEŞİKTAŞ",
    "barrier": "TERMİNAL",
    "latitude": "41.0864",
    "longitude": "29.0079"
  },
  {
    "id": "269",
    "name": "ÇINAR AÇIK OTOPARKI (SABANCI BİNASI YANI)",
    "city": "İSTANBUL",
    "district": "BEŞİKTAŞ",
    "barrier": "TERMİNAL",
    "latitude": "41.0453",
    "longitude": "29.0088"
  },
  {
    "id": "270",
    "name": "ARAP CAMİİ AÇIK OTOPARKI",
    "city": "İSTANBUL",
    "district": "BEYOĞLU",
    "barrier": "TERMİNAL",
    "latitude": "41.0227",
    "longitude": "28.9723"
  },
  {
    "id": "271",
    "name": "ÇIRAĞAN SARAYI YOL ÜSTÜ",
    "city": "İSTANBUL",
    "district": "BEŞİKTAŞ",
    "barrier": "TERMİNAL",
    "latitude": "41.0448",
    "longitude": "29.0165"
  },
  {
    "id": "272",
    "name": "ÇINAR HOTEL ÖNÜ",
    "city": "İSTANBUL",
    "district": "BAKIRKÖY",
    "barrier": "TERMİNAL",
    "latitude": "40.9595",
    "longitude": "28.8361"
  },
  {
    "id": "273",
    "name": "HARBİYE ZEMİN ALTI OTOPARKI",
    "city": "İSTANBUL",
    "district": "ŞİŞLİ",
    "barrier": "BARİYER",
    "latitude": "41.0408",
    "longitude": "28.9869"
  },
  {
    "id": "274",
    "name": "LEVENT DEDE KORKUT SOKAK(ESKİ G 43)",
    "city": "İSTANBUL",
    "district": "ŞİŞLİ",
    "barrier": "TERMİNAL",
    "latitude": "41.076453535428456",
    "longitude": "29.013876290522326"
  },
  {
    "id": "275",
    "name": "SİLİVRİ ATATÜRK CADDESİ",
    "city": "İSTANBUL",
    "district": "SİLİVRİ",
    "barrier": "TERMİNAL",
    "latitude": "41.07438271488611",
    "longitude": "28.24421837986224"
  },
  {
    "id": "276",
    "name": "MASLAK AÇIK OTOPARKI",
    "city": "İSTANBUL",
    "district": "SARIYER",
    "barrier": "BARİYER",
    "latitude": "41.117063820705496",
    "longitude": "29.023668601781"
  },
  {
    "id": "277",
    "name": "CİHANGİR CADDESİ",
    "city": "İSTANBUL",
    "district": "BEYOĞLU",
    "barrier": "TERMİNAL",
    "latitude": "41.031834990322004",
    "longitude": "28.985786840589"
  },
  {
    "id": "278",
    "name": "MECLİS-İ MEBUSAN YOKUŞU",
    "city": "İSTANBUL",
    "district": "BEYOĞLU",
    "barrier": "TERMİNAL",
    "latitude": "41.03309727054671",
    "longitude": "28.9876188111218"
  },
  {
    "id": "279",
    "name": "YENER SOKAK",
    "city": "İSTANBUL",
    "district": "BEŞİKTAŞ",
    "barrier": "TERMİNAL",
    "latitude": "41.0634009",
    "longitude": "29.0101987"
  },
  {
    "id": "280",
    "name": "RÖNE PARK ÖNÜ",
    "city": "İSTANBUL",
    "district": "BAKIRKÖY",
    "barrier": "TERMİNAL",
    "latitude": "40.95763896275899",
    "longitude": "28.831910018656124"
  },
  {
    "id": "281",
    "name": "EMİRGAN SAHİL",
    "city": "İSTANBUL",
    "district": "SARIYER",
    "barrier": "TERMİNAL",
    "latitude": "41.10545694610302",
    "longitude": "29.057079108621558"
  },
  {
    "id": "282",
    "name": "SULTANAHMET MEYDANI",
    "city": "İSTANBUL",
    "district": "FATİH",
    "barrier": "TERMİNAL",
    "latitude": "41.00186156886432",
    "longitude": "28.97752333937629"
  },
  {
    "id": "283",
    "name": "LEVENT METRO YER ALTI OTOPARKI",
    "city": "İSTANBUL",
    "district": "ŞİŞLİ",
    "barrier": "TERMİNAL",
    "latitude": "41.08068178447861",
    "longitude": "29.011010056493525"
  },
  {
    "id": "284",
    "name": "GÜNGÖREN SANCAKTEPE AÇIK OTOPARKI",
    "city": "İSTANBUL",
    "district": "GÜNGÖREN",
    "barrier": "TERMİNAL",
    "latitude": "41.02030291416387",
    "longitude": "28.88711724147796"
  },
  {
    "id": "285",
    "name": "AKGÜN CADDESİ",
    "city": "İSTANBUL",
    "district": "SARIYER",
    "barrier": "TERMİNAL",
    "latitude": "41.1281485",
    "longitude": "29.0283381"
  },
  {
    "id": "286",
    "name": "ÇAYIR ÇİMEN SOKAK",
    "city": "İSTANBUL",
    "district": "BEŞİKTAŞ",
    "barrier": "TERMİNAL",
    "latitude": "41.0785337",
    "longitude": "29.0131851"
  },
  {
    "id": "287",
    "name": "DARÜŞŞAFAKA YER ALTI OTOPARKI",
    "city": "İSTANBUL",
    "district": "SARIYER",
    "barrier": "BARİYER",
    "latitude": "41.1292",
    "longitude": "29.0252"
  },
  {
    "id": "288",
    "name": "SEYRANTEPE KATLI (ARENA KARŞISI)",
    "city": "İSTANBUL",
    "district": "SARIYER",
    "barrier": "TERMİNAL",
    "latitude": "41.094154454604116",
    "longitude": "28.988106704053397"
  },
  {
    "id": "289",
    "name": "SİYAVUŞPAŞA YER ALTI OTOPARKI",
    "city": "İSTANBUL",
    "district": "BAHÇELİEVLER",
    "barrier": "BARİYER",
    "latitude": "40.99653031994112",
    "longitude": "28.85318088303773"
  },
  {
    "id": "290",
    "name": "GÜNEŞ SOKAK ÇIKMAZI",
    "city": "İSTANBUL",
    "district": "BEŞİKTAŞ",
    "barrier": "TERMİNAL",
    "latitude": "41.087",
    "longitude": "29.008"
  },
  {
    "id": "291",
    "name": "HACI OSMAN METRO YER ALTI OTOPARKI",
    "city": "İSTANBUL",
    "district": "SARIYER",
    "barrier": "BARİYER",
    "latitude": "41.13984523565772",
    "longitude": "29.030675620999546"
  },
  {
    "id": "292",
    "name": "YEŞİLKÖY FENER CADDESİ",
    "city": "İSTANBUL",
    "district": "BAKIRKÖY",
    "barrier": "TERMİNAL",
    "latitude": "40.95966523243355",
    "longitude": "28.835637210086087"
  },
  {
    "id": "293",
    "name": "HAZNEDAR YERALTI OTOPARKI",
    "city": "İSTANBUL",
    "district": "GÜNGÖREN",
    "barrier": "BARİYER",
    "latitude": "41.008076855756805",
    "longitude": "28.873500899999996"
  },
  {
    "id": "294",
    "name": "BOMONTİ PROTESTAN MEZARLIĞI YANI",
    "city": "İSTANBUL",
    "district": "ŞİŞLİ",
    "barrier": "TERMİNAL",
    "latitude": "41.064475747599204",
    "longitude": "28.98758013770673"
  },
  {
    "id": "295",
    "name": "NADIDE SOKAK",
    "city": "İSTANBUL",
    "district": "GÜNGÖREN",
    "barrier": "TERMİNAL",
    "latitude": "41.0079897",
    "longitude": "28.8919408"
  },
  {
    "id": "296",
    "name": "SAVAŞ CADDESİ",
    "city": "İSTANBUL",
    "district": "GÜNGÖREN",
    "barrier": "TERMİNAL",
    "latitude": "41.011086",
    "longitude": "28.8888082"
  },
  {
    "id": "297",
    "name": "POYRAZLI SOKAK",
    "city": "İSTANBUL",
    "district": "GÜNGÖREN",
    "barrier": "TERMİNAL",
    "latitude": "41.0086506",
    "longitude": "28.8861155"
  },
  {
    "id": "298",
    "name": "HASEKİ CADDESİ",
    "city": "İSTANBUL",
    "district": "FATİH",
    "barrier": "TERMİNAL",
    "latitude": "41.00837028248757",
    "longitude": "28.94533862908768"
  },
  {
    "id": "299",
    "name": "VALİ KONAĞI CADDESİ MÜZE ÖNÜ",
    "city": "İSTANBUL",
    "district": "ŞİŞLİ",
    "barrier": "TERMİNAL",
    "latitude": "41.05544498273053",
    "longitude": "28.99587475742732"
  },
  {
    "id": "300",
    "name": "DÜNYA SAĞLIK SOKAK",
    "city": "İSTANBUL",
    "district": "BEYOĞLU",
    "barrier": "TERMİNAL",
    "latitude": "41.035249695058354",
    "longitude": "28.987999879691174"
  },
  {
    "id": "301",
    "name": "ÇİROZ YEŞİLKÖY HALK PAZARI",
    "city": "İSTANBUL",
    "district": "BAKIRKÖY",
    "barrier": "TERMİNAL",
    "latitude": "40.962571895149566",
    "longitude": "28.821200745042155"
  },
  {
    "id": "302",
    "name": "GENÇLER CADDESİ",
    "city": "İSTANBUL",
    "district": "BAKIRKÖY",
    "barrier": "TERMİNAL",
    "latitude": "40.9802",
    "longitude": "28.8694"
  },
  {
    "id": "303",
    "name": "MAÇKA CADDESİ TELEFERİK ÖNÜ",
    "city": "İSTANBUL",
    "district": "ŞİŞLİ",
    "barrier": "TERMİNAL",
    "latitude": "41.04839695367081",
    "longitude": "28.990270708898763"
  },
  {
    "id": "304",
    "name": "KORE ŞEHİTLERİ CAD-YÜZBAŞI KAYA ALDOĞAN SOKAK",
    "city": "İSTANBUL",
    "district": "ŞİŞLİ",
    "barrier": "TERMİNAL",
    "latitude": "41.071861",
    "longitude": "29.011306"
  },
  {
    "id": "305",
    "name": "MİTHAT ULU ÜNLÜ SOKAK",
    "city": "İSTANBUL",
    "district": "ŞİŞLİ",
    "barrier": "TERMİNAL",
    "latitude": "41.07077582100658",
    "longitude": "29.012219950148825"
  },
  {
    "id": "306",
    "name": "DENİZ FENERİ OTOPARKI",
    "city": "İSTANBUL",
    "district": "FATİH",
    "barrier": "BARİYER",
    "latitude": "41.00190650246583",
    "longitude": "28.9773451226724"
  },
  {
    "id": "307",
    "name": "İKİNCİ KESKİN KALEM SOKAK",
    "city": "İSTANBUL",
    "district": "ŞİŞLİ",
    "barrier": "TERMİNAL",
    "latitude": "41.069505945056626",
    "longitude": "29.006654772526183"
  },
  {
    "id": "308",
    "name": "ÇELİKTEPE AÇIK OTOPARKI",
    "city": "İSTANBUL",
    "district": "ŞİŞLİ",
    "barrier": "BARİYER",
    "latitude": "41.0833125903123",
    "longitude": "29.00258485999683"
  },
  {
    "id": "309",
    "name": "DARULBEDAİ CADDESİ",
    "city": "İSTANBUL",
    "district": "ŞİŞLİ",
    "barrier": "TERMİNAL",
    "latitude": "41.058056",
    "longitude": "28.966278"
  },
  {
    "id": "310",
    "name": "METE CADDESİ",
    "city": "İSTANBUL",
    "district": "BEYOĞLU",
    "barrier": "TERMİNAL",
    "latitude": "41.038903293959436",
    "longitude": "28.988200259901575"
  },
  {
    "id": "311",
    "name": "FATİH SU YOLU SOKAK",
    "city": "İSTANBUL",
    "district": "FATİH",
    "barrier": "TERMİNAL",
    "latitude": "41.017167",
    "longitude": "28.953222"
  },
  {
    "id": "312",
    "name": "ALİBEYKÖY CEP OTOGARI",
    "city": "İSTANBUL",
    "district": "EYÜP",
    "barrier": "BARİYER",
    "latitude": "41.08809514095548",
    "longitude": "28.942705712005836"
  },
  {
    "id": "313",
    "name": "LEVENT BÜYÜKDERE CADDESİ",
    "city": "İSTANBUL",
    "district": "BEŞİKTAŞ",
    "barrier": "TERMİNAL",
    "latitude": "41.07743295438102",
    "longitude": "29.01414799142053"
  },
  {
    "id": "314",
    "name": "FATİH UZUNÇARŞI CADDESİ ",
    "city": "İSTANBUL",
    "district": "FATİH",
    "barrier": "TERMİNAL",
    "latitude": "41.0154",
    "longitude": "28.9675"
  },
  {
    "id": "315",
    "name": "ŞİŞLİ SIRACEVİZLER CADDESİ",
    "city": "İSTANBUL",
    "district": "ŞİŞLİ",
    "barrier": "TERMİNAL",
    "latitude": "41.06340322334609",
    "longitude": "28.983651624700464"
  },
  {
    "id": "316",
    "name": "ŞİŞLİ VETERİNER HİLMİ SOKAK",
    "city": "İSTANBUL",
    "district": "ŞİŞLİ",
    "barrier": "TERMİNAL",
    "latitude": "41.059662848994705",
    "longitude": "28.989979521434073"
  },
  {
    "id": "317",
    "name": "RAGIP GÜMÜŞPALA CAD.(TİCARET ÜNİV.ÖNÜ)",
    "city": "İSTANBUL",
    "district": "FATİH",
    "barrier": "TERMİNAL",
    "latitude": "41.02008842370503",
    "longitude": "28.963536845975096"
  },
  {
    "id": "318",
    "name": "BEŞİKTAŞ AKASYALI SOKAK TENİS KULÜBÜ ÖNÜ",
    "city": "İSTANBUL",
    "district": "BEŞİKTAŞ",
    "barrier": "TERMİNAL",
    "latitude": "41.085350648984985",
    "longitude": "29.00881347809696"
  },
  {
    "id": "319",
    "name": "SEYİT NİZAM CADDESİ",
    "city": "İSTANBUL",
    "district": "ZEYTİNBURNU",
    "barrier": "TERMİNAL",
    "latitude": "41.00612267934394",
    "longitude": "28.90395105041718"
  },
  {
    "id": "320",
    "name": "MASLAK DEREBOYU CADDESİ",
    "city": "İSTANBUL",
    "district": "SARIYER",
    "barrier": "TERMİNAL",
    "latitude": "41.114389",
    "longitude": "29.024111"
  },
  {
    "id": "321",
    "name": "GAZİ UMUR PAŞA SOKAK",
    "city": "İSTANBUL",
    "district": "BEŞİKTAŞ",
    "barrier": "TERMİNAL",
    "latitude": "41.05827164560337",
    "longitude": "29.011140198567283"
  },
  {
    "id": "322",
    "name": "ESKİ BÜYÜKDERE CADDESİ",
    "city": "İSTANBUL",
    "district": "KAĞITHANE",
    "barrier": "TERMİNAL",
    "latitude": "41.08851413978514",
    "longitude": "29.0063581737097"
  },
  {
    "id": "323",
    "name": "SÜTLÜCE MİNİATÜRK YANI",
    "city": "İSTANBUL",
    "district": "BEYOĞLU",
    "barrier": "BARİYER",
    "latitude": "41.05713450597644",
    "longitude": "28.95054578508627"
  },
  {
    "id": "324",
    "name": "4. LEVENT PD AÇIK OTOPARKI",
    "city": "İSTANBUL",
    "district": "ŞİŞLİ",
    "barrier": "BARİYER",
    "latitude": "41.08067992672376",
    "longitude": "29.011006666449294"
  },
  {
    "id": "325",
    "name": "FİŞEKHANE CADDESİ",
    "city": "İSTANBUL",
    "district": "BAKIRKÖY",
    "barrier": "TERMİNAL",
    "latitude": "40.97398420080325",
    "longitude": "28.875929787279013"
  },
  {
    "id": "326",
    "name": "ÇAPA YOL ÜSTÜ OTOPARKI",
    "city": "İSTANBUL",
    "district": "FATİH",
    "barrier": "TERMİNAL",
    "latitude": "41.016701881380655",
    "longitude": "28.930987503554313"
  },
  {
    "id": "327",
    "name": "EYÜP TEKKE PARKI",
    "city": "İSTANBUL",
    "district": "EYÜP",
    "barrier": "TERMİNAL",
    "latitude": "41.056",
    "longitude": "28.9398"
  },
  {
    "id": "328",
    "name": "SARIYER SÜMER SOKAK",
    "city": "İSTANBUL",
    "district": "SARIYER",
    "barrier": "TERMİNAL",
    "latitude": "41.109801910089246",
    "longitude": "29.0174052445894"
  },
  {
    "id": "329",
    "name": "İTALYAN HASTANESİ KARŞISI AÇIK OTOPARKI",
    "city": "İSTANBUL",
    "district": "BEYOĞLU",
    "barrier": "TERMİNAL",
    "latitude": "41.02822283791521",
    "longitude": "28.98168177445247"
  },
  {
    "id": "330",
    "name": "ULU CAMİİ AÇIK OTOPARKI",
    "city": "İSTANBUL",
    "district": "BAHÇELİEVLER",
    "barrier": "BARİYER",
    "latitude": "40.9983036756587",
    "longitude": "28.84991857275957"
  },
  {
    "id": "331",
    "name": "SÜLEYMANİYE CAMİ ALTI AÇIK OTOPARKI",
    "city": "İSTANBUL",
    "district": "FATİH",
    "barrier": "BARİYER",
    "latitude": "41.01575578497235",
    "longitude": "28.96098380237861"
  },
  {
    "id": "332",
    "name": "EYÜP ISTANBUL CADDESI",
    "city": "İSTANBUL",
    "district": "EYÜP",
    "barrier": "TERMİNAL",
    "latitude": "41.235944",
    "longitude": "28.815528"
  },
  {
    "id": "333",
    "name": "MAÇKA KATLI OTOPARKI",
    "city": "İSTANBUL",
    "district": "ŞİŞLİ",
    "barrier": "BARİYER",
    "latitude": "41.04839775773584",
    "longitude": "28.990267466615318"
  },
  {
    "id": "334",
    "name": "MATBAACILAR SİTESİ YANI",
    "city": "İSTANBUL",
    "district": "ZEYTİNBURNU",
    "barrier": "BARİYER",
    "latitude": "41.0234744752855",
    "longitude": "28.918887745182793"
  },
  {
    "id": "335",
    "name": "BAŞAKŞEHİR METRO AÇIK OTOPARKI",
    "city": "İSTANBUL",
    "district": "BAŞAKŞEHİR",
    "barrier": "TERMİNAL",
    "latitude": "41.106838994065555",
    "longitude": "28.801183728954186"
  },
  {
    "id": "336",
    "name": "BÜYÜK KARAMAN - HAYDARBEY CADDELERİ",
    "city": "İSTANBUL",
    "district": "FATİH",
    "barrier": "TERMİNAL",
    "latitude": "41.01632996213125",
    "longitude": "28.952498342330014"
  },
  {
    "id": "337",
    "name": "ŞEHZADEBAŞI CADDESİ",
    "city": "İSTANBUL",
    "district": "FATİH",
    "barrier": "TERMİNAL",
    "latitude": "41.012764651267965",
    "longitude": "28.957571440692927"
  },
  {
    "id": "338",
    "name": "TACİRHANE SOKAK",
    "city": "İSTANBUL",
    "district": "FATİH",
    "barrier": "TERMİNAL",
    "latitude": "41.013512147085066",
    "longitude": "28.966883090543746"
  },
  {
    "id": "339",
    "name": "ARDA TURAN SPOR KOMPLEKSİ KATLI",
    "city": "İSTANBUL",
    "district": "BAYRAMPAŞA",
    "barrier": "BARİYER",
    "latitude": "41.03817995137789",
    "longitude": "28.906667810469866"
  },
  {
    "id": "340",
    "name": "KAZLIÇEŞME MARMARAY AÇIK OTOPARKI",
    "city": "İSTANBUL",
    "district": "ZEYTİNBURNU",
    "barrier": "BARİYER",
    "latitude": "40.992299949050675",
    "longitude": "28.917748042330018"
  },
  {
    "id": "341",
    "name": "ASLANHANE SOKAK",
    "city": "İSTANBUL",
    "district": "FATİH",
    "barrier": "TERMİNAL",
    "latitude": "41.0176608",
    "longitude": "28.9504368"
  },
  {
    "id": "342",
    "name": "RAGIP GÜMÜŞPALA CAD.(SOBACILAR ÖNÜ)",
    "city": "İSTANBUL",
    "district": "FATİH",
    "barrier": "TERMİNAL",
    "latitude": "41.0181",
    "longitude": "28.969"
  },
  {
    "id": "343",
    "name": "KİRAZLI METRO DURAĞI PD AÇIK OTOPARKI",
    "city": "İSTANBUL",
    "district": "BAĞCILAR",
    "barrier": "BARİYER",
    "latitude": "41.03293666723407",
    "longitude": "28.84280851349502"
  },
  {
    "id": "344",
    "name": "ALİBEYKÖY CEP OTOGARI AÇIK OTOPARKI",
    "city": "İSTANBUL",
    "district": "EYÜP",
    "barrier": "BARİYER",
    "latitude": "41.08805985675919",
    "longitude": "28.942641947496345"
  },
  {
    "id": "345",
    "name": "ESENLER MENDERES METRO İSTASYONU YANI",
    "city": "İSTANBUL",
    "district": "ESENLER",
    "barrier": "BARİYER",
    "latitude": "41.042561739049376",
    "longitude": "28.87818066213452"
  },
  {
    "id": "346",
    "name": "MUALLİM NACİ AÇIKOTOPARKI",
    "city": "İSTANBUL",
    "district": "BEŞİKTAŞ",
    "barrier": "BARİYER",
    "latitude": "41.05614897388842",
    "longitude": "29.03436352354733"
  },
  {
    "id": "347",
    "name": "BEŞİKTAŞ EMİRHAN CADDESİ",
    "city": "İSTANBUL",
    "district": "BEŞİKTAŞ",
    "barrier": "TERMİNAL",
    "latitude": "41.054469",
    "longitude": "29.0021596"
  },
  {
    "id": "348",
    "name": "YENİKAPI SPOR VE KÜLTÜR MERKEZİ PD AÇIK OTOPARKI",
    "city": "İSTANBUL",
    "district": "FATİH",
    "barrier": "BARİYER",
    "latitude": "41.0006",
    "longitude": "28.9519"
  },
  {
    "id": "349",
    "name": "ÇATALCA İNCEĞİZ MESİRE ALANI",
    "city": "İSTANBUL",
    "district": "ÇATALCA",
    "barrier": "TERMİNAL",
    "latitude": "41.1827",
    "longitude": "28.4041"
  },
  {
    "id": "350",
    "name": "BAYRAMPAŞA NİKAH DAİRESİ OTOPARKI",
    "city": "İSTANBUL",
    "district": "BAYRAMPAŞA",
    "barrier": "BARİYER",
    "latitude": "41.04347224751853",
    "longitude": "28.913062568787467"
  },
  {
    "id": "351",
    "name": "BAYRAMPAŞA MURATPAŞA YER ALTI OTOPARKI",
    "city": "İSTANBUL",
    "district": "BAYRAMPAŞA",
    "barrier": "BARİYER",
    "latitude": "41.04709603320666",
    "longitude": "28.908271412674814"
  },
  {
    "id": "352",
    "name": "YENİKAPI MARMARAY KÜÇÜK OTOPARKI",
    "city": "İSTANBUL",
    "district": "FATİH",
    "barrier": "BARİYER",
    "latitude": "41.00653437829882",
    "longitude": "28.95035035257625"
  },
  {
    "id": "353",
    "name": "YENİKAPI MARMARAY BÜYÜK OTOPARKI",
    "city": "İSTANBUL",
    "district": "FATİH",
    "barrier": "BARİYER",
    "latitude": "41.00572271395559",
    "longitude": "28.950597345760237"
  },
  {
    "id": "354",
    "name": "SÜLEYMAN SEBA CADDESİ",
    "city": "İSTANBUL",
    "district": "BEŞİKTAŞ",
    "barrier": "TERMİNAL",
    "latitude": "41.0415512",
    "longitude": "29.003503"
  },
  {
    "id": "355",
    "name": "YEŞİLKÖY MESLEKİ EĞİTİM OKULU KAPALI OTOPARKI",
    "city": "İSTANBUL",
    "district": "BAKIRKÖY",
    "barrier": "TERMİNAL",
    "latitude": "40.96121459423571",
    "longitude": "28.823465877551865"
  },
  {
    "id": "356",
    "name": "EGS BLOKLARI AÇIK OTOPARK",
    "city": "İSTANBUL",
    "district": "BAKIRKÖY",
    "barrier": "BARİYER",
    "latitude": "40.9867563",
    "longitude": "28.8342474"
  },
  {
    "id": "357",
    "name": "YILDIZ KAVŞAĞI YOL ÜSTÜ OTOPARKI",
    "city": "İSTANBUL",
    "district": "BEŞİKTAŞ",
    "barrier": "TERMİNAL",
    "latitude": "41.0515",
    "longitude": "29.0082"
  },
  {
    "id": "358",
    "name": "NİSPETİYE CADDESİ AÇIK OTOPARKI",
    "city": "İSTANBUL",
    "district": "BEŞİKTAŞ",
    "barrier": "TERMİNAL",
    "latitude": "41.075725922288804",
    "longitude": "29.01698020599068"
  },
  {
    "id": "359",
    "name": "UNKAPANI AÇIK OTOPARKI",
    "city": "İSTANBUL",
    "district": "FATİH",
    "barrier": "TERMİNAL",
    "latitude": "0",
    "longitude": "0"
  },
  {
    "id": "360",
    "name": "EMİNÖNÜ CEP OTOPARKI",
    "city": "İSTANBUL",
    "district": "FATİH",
    "barrier": "TERMİNAL",
    "latitude": "41.017",
    "longitude": "28.976"
  },
  {
    "id": "361",
    "name": "BAYRAMPAŞA ADAPARK KATLI OTOPARKI",
    "city": "İSTANBUL",
    "district": "BAYRAMPAŞA",
    "barrier": "BARİYER",
    "latitude": "41.06475403950303",
    "longitude": "28.887438909387324"
  },
  {
    "id": "362",
    "name": "GÜRPINAR BALIK HALİ OTOPARKI",
    "city": "İSTANBUL",
    "district": "BEYLİKDÜZÜ",
    "barrier": "BARİYER",
    "latitude": "40.96810284946387",
    "longitude": "28.600835835582302"
  },
  {
    "id": "363",
    "name": "CENGİZ TOPEL YER ALTI KATLI OTOPARKI",
    "city": "İSTANBUL",
    "district": "ESENLER",
    "barrier": "BARİYER",
    "latitude": "41.05867136666944",
    "longitude": "28.864318500616882"
  },
  {
    "id": "364",
    "name": "FATİH ÇEŞMESİ TABİAT PARKI OTOPARKI",
    "city": "İSTANBUL",
    "district": "EYÜP",
    "barrier": "BARİYER",
    "latitude": "41.16896792471388",
    "longitude": "28.946120545619536"
  },
  {
    "id": "365",
    "name": "HALİÇ SOSYAL TESİSLER",
    "city": "İSTANBUL",
    "district": "FATİH",
    "barrier": "BARİYER",
    "latitude": "41.02773933591727",
    "longitude": "28.957252191528525"
  },
  {
    "id": "366",
    "name": "ÇIRPICI SOSYAL TESİSLER",
    "city": "İSTANBUL",
    "district": "ZEYTİNBURNU",
    "barrier": "BARİYER",
    "latitude": "41.000039257896674",
    "longitude": "28.892538371934478"
  },
  {
    "id": "367",
    "name": "KASIMPAŞA SOSYAL TESİSLER",
    "city": "İSTANBUL",
    "district": "BEYOĞLU",
    "barrier": "TERMİNAL",
    "latitude": "41.029570491899094",
    "longitude": "28.967430434589986"
  },
  {
    "id": "368",
    "name": "AVCILAR DENİZKÖŞKLER TOPLANTI VE DAVET SALONU AÇIK OTOPARKI",
    "city": "İSTANBUL",
    "district": "AVCILAR",
    "barrier": "BARİYER",
    "latitude": "40.97491345026539",
    "longitude": "28.74329623656862"
  },
  {
    "id": "369",
    "name": "FLORYA SOSYAL TESİSLER",
    "city": "İSTANBUL",
    "district": "BAKIRKÖY",
    "barrier": "BARİYER",
    "latitude": "40.96807430689089",
    "longitude": "28.795721988335462"
  },
  {
    "id": "370",
    "name": "MECİDİYEKÖY DAMLA SOKAK",
    "city": "İSTANBUL",
    "district": "ŞİŞLİ",
    "barrier": "TERMİNAL",
    "latitude": "41.067262390098875",
    "longitude": "29.000471329880547"
  },
  {
    "id": "371",
    "name": "FATİH AKŞEMSETTİN CADDESİ",
    "city": "İSTANBUL",
    "district": "FATİH",
    "barrier": "TERMİNAL",
    "latitude": "41.01956777800829",
    "longitude": "28.940167644921072"
  },
  {
    "id": "372",
    "name": "MECİDİYEKÖY OĞUZ SOKAK",
    "city": "İSTANBUL",
    "district": "ŞİŞLİ",
    "barrier": "TERMİNAL",
    "latitude": "41.0677256589478",
    "longitude": "29.000317456707794"
  },
  {
    "id": "373",
    "name": "ŞİŞLİ ALİ KAYA SOKAK",
    "city": "İSTANBUL",
    "district": "ŞİŞLİ",
    "barrier": "TERMİNAL",
    "latitude": "41.07914278144102",
    "longitude": "29.010392635582303"
  },
  {
    "id": "374",
    "name": "LANGA BOSTANLARI AÇIK OTOPARK",
    "city": "İSTANBUL",
    "district": "FATİH",
    "barrier": "TERMİNAL",
    "latitude": "41.00633104818883",
    "longitude": "28.950868635582307"
  },
  {
    "id": "375",
    "name": "RESSAM HALİM SOKAK AÇIK OTOPARKI",
    "city": "İSTANBUL",
    "district": "BAHÇELİEVLER",
    "barrier": "BARİYER",
    "latitude": "40.99646465215239",
    "longitude": "28.864257426118424"
  },
  {
    "id": "376",
    "name": "BAĞCILAR DEMİRKAPI ZEMİN ALTI OTOPARKI",
    "city": "İSTANBUL",
    "district": "BAĞCILAR",
    "barrier": "BARİYER",
    "latitude": "41.05009377250781",
    "longitude": "28.8329479355823"
  },
  {
    "id": "377",
    "name": "BAHÇEŞEHİR CEYLAN SOKAK AÇIK OTOPARKI",
    "city": "İSTANBUL",
    "district": "BAŞAKŞEHİR",
    "barrier": "TERMİNAL",
    "latitude": "41.062877",
    "longitude": "28.68389"
  },
  {
    "id": "378",
    "name": "BAHÇEŞEHİR GÖLET AÇIK OTOPARKI",
    "city": "İSTANBUL",
    "district": "BAŞAKŞEHİR",
    "barrier": "BARİYER",
    "latitude": "41.0719",
    "longitude": "28.6901"
  },
  {
    "id": "379",
    "name": "MAÇKA AÇIK OTOPARKI",
    "city": "İSTANBUL",
    "district": "ŞİŞLİ",
    "barrier": "BARİYER",
    "latitude": "41.04444395488888",
    "longitude": "28.994547718824144"
  },
  {
    "id": "380",
    "name": "BAHÇEŞEHİR DOĞA PARKI CADDESİ",
    "city": "İSTANBUL",
    "district": "BAŞAKŞEHİR",
    "barrier": "TERMİNAL",
    "latitude": "41.06785197997665",
    "longitude": "28.690421670100584"
  },
  {
    "id": "381",
    "name": "ADEM BAŞTÜRK KÜLTÜR MERKEZİ KATLI",
    "city": "İSTANBUL",
    "district": "ESENLER",
    "barrier": "BARİYER",
    "latitude": "41.03682091175202",
    "longitude": "28.886940027624846"
  },
  {
    "id": "382",
    "name": "BAĞCILAR EMNİYET MÜDÜRLÜĞÜ YANI AÇIK OTOPARKI",
    "city": "İSTANBUL",
    "district": "BAĞCILAR",
    "barrier": "BARİYER",
    "latitude": "41.034552191177625",
    "longitude": "28.860002971801627"
  },
  {
    "id": "383",
    "name": "YAVUZ SELİM TEKNOLOJİK OTOPARKI",
    "city": "İSTANBUL",
    "district": "FATİH",
    "barrier": "BARİYER",
    "latitude": "41.02341512172989",
    "longitude": "28.952937366777157"
  },
  {
    "id": "384",
    "name": "MERTER METRO ZEMİN ALTI OTOPARKI",
    "city": "İSTANBUL",
    "district": "GÜNGÖREN",
    "barrier": "BARİYER",
    "latitude": "41.00365535603431",
    "longitude": "28.88949328535766"
  },
  {
    "id": "385",
    "name": "ŞEHREMİNİ AÇIK OTOPARKI",
    "city": "İSTANBUL",
    "district": "FATİH",
    "barrier": "TERMİNAL",
    "latitude": "41.01329070391805",
    "longitude": "28.93329452778942"
  },
  {
    "id": "386",
    "name": "FATİH KÜTÜPHANE AÇIK OTOPARKI",
    "city": "İSTANBUL",
    "district": "FATİH",
    "barrier": "TERMİNAL",
    "latitude": "41.01666383684663",
    "longitude": "28.949420089647294"
  },
  {
    "id": "387",
    "name": "BEYLİKDÜZÜ ATATÜRK BULVARI AÇIK OTOPARKI",
    "city": "İSTANBUL",
    "district": "BEYLİKDÜZÜ",
    "barrier": "TERMİNAL",
    "latitude": "41.01372688067396",
    "longitude": "28.645206028614833"
  },
  {
    "id": "388",
    "name": "BAYRAMPAŞA DEVLET HASTANESİ CEP OTOPARKI",
    "city": "İSTANBUL",
    "district": "BAYRAMPAŞA",
    "barrier": "TERMİNAL",
    "latitude": "41.0415",
    "longitude": "28.9032"
  },
  {
    "id": "389",
    "name": "ŞİŞLİ ZEMİN ALTI OTOPARKI",
    "city": "İSTANBUL",
    "district": "ŞİŞLİ",
    "barrier": "BARİYER",
    "latitude": "41.064064352776896",
    "longitude": "28.99895572428048"
  },
  {
    "id": "390",
    "name": "SULTANGAZİ ZEMİN ALTI OTOPARKI",
    "city": "İSTANBUL",
    "district": "SULTANGAZİ",
    "barrier": "BARİYER",
    "latitude": "41.09426290636327",
    "longitude": "28.864934488131333"
  },
  {
    "id": "391",
    "name": "ŞİŞLİ HARBİYE CUMHURİYET CADDESİ",
    "city": "İSTANBUL",
    "district": "ŞİŞLİ",
    "barrier": "TERMİNAL",
    "latitude": "41.04389097067486",
    "longitude": "28.986213732192958"
  },
  {
    "id": "392",
    "name": "ARAS SOKAK",
    "city": "İSTANBUL",
    "district": "BÜYÜKÇEKMECE",
    "barrier": "TERMİNAL",
    "latitude": "41.0227405",
    "longitude": "28.6216371"
  },
  {
    "id": "393",
    "name": "BAYRAMPAŞA YENİDOĞAN ZEMİN ALTI OTOPARKI",
    "city": "İSTANBUL",
    "district": "BAYRAMPAŞA",
    "barrier": "BARİYER",
    "latitude": "41.039753149096725",
    "longitude": "28.90890105956238"
  },
  {
    "id": "394",
    "name": "İSPARK WEST İSTANBUL MARİNA AÇIK OTOPARKI",
    "city": "İSTANBUL",
    "district": "BEYLİKDÜZÜ",
    "barrier": "BARİYER",
    "latitude": "40.963522037902806",
    "longitude": "28.656567387647016"
  },
  {
    "id": "395",
    "name": "ŞİRİNEVLER MEYDAN ZEMİN ALTI OTOPARKI",
    "city": "İSTANBUL",
    "district": "BAHÇELİEVLER",
    "barrier": "BARİYER",
    "latitude": "40.992310762178725",
    "longitude": "28.848740055712796"
  },
  {
    "id": "396",
    "name": "AZERBAYCAN DOSTLUK PARKI ZEMİN ALTI OTOPARKI",
    "city": "İSTANBUL",
    "district": "BAĞCILAR",
    "barrier": "BARİYER",
    "latitude": "41.044368762447974",
    "longitude": "28.85408080000001"
  },
  {
    "id": "397",
    "name": "HARBİYE NİZAMİYE CADDESİ YOL ÜSTÜ OTOPARKI",
    "city": "İSTANBUL",
    "district": "ŞİŞLİ",
    "barrier": "TERMİNAL",
    "latitude": "41.04446419116852",
    "longitude": "28.99453212994362"
  },
  {
    "id": "398",
    "name": "KÜÇÜKÇEKMECE FEVZİ ÇAKMAK MEYDANI ZEMİN ALTI OTOPARKI",
    "city": "İSTANBUL",
    "district": "KÜÇÜKÇEKMECE",
    "barrier": "BARİYER",
    "latitude": "41.00756873412425",
    "longitude": "28.792459384731295"
  },
  {
    "id": "399",
    "name": "ALİBEYKÖY YEŞİLTEPE ZEMİN ALTI OTOPARKI",
    "city": "İSTANBUL",
    "district": "EYÜP",
    "barrier": "BARİYER",
    "latitude": "41.07986526899721",
    "longitude": "28.937989299999998"
  },
  {
    "id": "400",
    "name": "BAYRAMPAŞA MUZAFFER ÖZTEKİN ZEMİN ALTI OTOPARKI",
    "city": "İSTANBUL",
    "district": "BAYRAMPAŞA",
    "barrier": "BARİYER",
    "latitude": "41.051",
    "longitude": "28.9066"
  },
  {
    "id": "401",
    "name": "İSPARK MERTER ZEMİNALTI KATLI OTOPARK",
    "city": "İSTANBUL",
    "district": "GÜNGÖREN",
    "barrier": "BARİYER",
    "latitude": "41.009562322085905",
    "longitude": "28.88769077487393"
  },
  {
    "id": "402",
    "name": "ARNAVUTKÖY ZEMİNALTI OTOPARKI",
    "city": "İSTANBUL",
    "district": "ARNAVUTKÖY",
    "barrier": "BARİYER",
    "latitude": "41.18351583286609",
    "longitude": "28.739169367571453"
  },
  {
    "id": "403",
    "name": "YENİKAPI TÜNEL ÜSTÜ AÇIK OTOPARKI",
    "city": "İSTANBUL",
    "district": "FATİH",
    "barrier": "BARİYER",
    "latitude": "41.00299356139571",
    "longitude": "28.95401818800843"
  },
  {
    "id": "404",
    "name": "KAĞITHANE HARMANTEPE ZEMİN ALTI OTOPARKI",
    "city": "İSTANBUL",
    "district": "KAĞITHANE",
    "barrier": "BARİYER",
    "latitude": "41.08155898218428",
    "longitude": "28.990710471163986"
  },
  {
    "id": "405",
    "name": "ŞİŞLİ RUMELİ CADDESİ METRO YANI",
    "city": "İSTANBUL",
    "district": "ŞİŞLİ",
    "barrier": "TERMİNAL",
    "latitude": "41.0538",
    "longitude": "28.9868"
  },
  {
    "id": "406",
    "name": "BAĞCILAR YILDIZTEPE KATLI OTOPARKI",
    "city": "İSTANBUL",
    "district": "BAĞCILAR",
    "barrier": "BARİYER",
    "latitude": "41.029079278332134",
    "longitude": "28.855721864419166"
  },
  {
    "id": "407",
    "name": "ESENLER MENDERES PARKI ZEMİN ALTI OTOPARKI",
    "city": "İSTANBUL",
    "district": "ESENLER",
    "barrier": "BARİYER",
    "latitude": "41.0412",
    "longitude": "28.8729"
  },
  {
    "id": "408",
    "name": "ATAKÖY METRO DURAĞI YANI ZEMİN ALTI OTOPARKI",
    "city": "İSTANBUL",
    "district": "BAKIRKÖY",
    "barrier": "BARİYER",
    "latitude": "40.99042346010804",
    "longitude": "28.84561844742701"
  },
  {
    "id": "409",
    "name": "KAYAŞEHİR MEYDAN ZEMİN ALTI OTOPARKI",
    "city": "İSTANBUL",
    "district": "BAŞAKŞEHİR",
    "barrier": "TERMİNAL",
    "latitude": "41.1196",
    "longitude": "28.7718"
  },
  {
    "id": "410",
    "name": "BEYOĞLU TAFLAN SOKAK NAKLİYECİLER PARKI",
    "city": "İSTANBUL",
    "district": "BEYOĞLU",
    "barrier": "TERMİNAL",
    "latitude": "0",
    "longitude": "0"
  },
  {
    "id": "411",
    "name": "HAMİDİYE MAHALLESİ KATLI OTOPARKI",
    "city": "İSTANBUL",
    "district": "KAĞITHANE",
    "barrier": "BARİYER",
    "latitude": "41.0949",
    "longitude": "28.971"
  },
  {
    "id": "412",
    "name": "AZAPKAPI HALİÇ METRO OTOPARKI",
    "city": "İSTANBUL",
    "district": "BEYOĞLU",
    "barrier": "BARİYER",
    "latitude": "41.02448663419446",
    "longitude": "28.969191804658575"
  },
  {
    "id": "413",
    "name": "BAHÇELİEVLER DEVLET HASTANESİ YANI KATLI OTOPARK",
    "city": "İSTANBUL",
    "district": "BAHÇELİEVLER",
    "barrier": "BARİYER",
    "latitude": "41.00734630733853",
    "longitude": "28.84406739317861"
  },
  {
    "id": "414",
    "name": "BAYRAMPAŞA ATATÜRK PARKI ZEMİN ALTI OTOPARKI",
    "city": "İSTANBUL",
    "district": "BAYRAMPAŞA",
    "barrier": "BARİYER",
    "latitude": "41.03975475365697",
    "longitude": "28.908912148444998"
  },
  {
    "id": "415",
    "name": "BAĞCILAR ÇOLAKOĞLU SOKAK ZEMİN ALTI OTOPARKI",
    "city": "İSTANBUL",
    "district": "BAĞCILAR",
    "barrier": "BARİYER",
    "latitude": "41.031420393887274",
    "longitude": "28.84270608909663"
  },
  {
    "id": "416",
    "name": "EYÜPSULTAN AKŞEMSETTİN MAHALLESİ ZEMİN ALTI OTOPARKI",
    "city": "İSTANBUL",
    "district": "EYÜP",
    "barrier": "BARİYER",
    "latitude": "41.08501785664918",
    "longitude": "28.925938764418003"
  },
  {
    "id": "417",
    "name": "HALKALI MAHALLESİ ZEMİNALTI OTOPARK",
    "city": "İSTANBUL",
    "district": "KÜÇÜKÇEKMECE",
    "barrier": "BARİYER",
    "latitude": "41.0359",
    "longitude": "28.7848"
  },
  {
    "id": "418",
    "name": "BÜYÜK İSTANBUL OTOGARI",
    "city": "İSTANBUL",
    "district": "BAYRAMPAŞA",
    "barrier": "BARİYER",
    "latitude": "41.0381803381913",
    "longitude": "28.906683635581995"
  },
  {
    "id": "419",
    "name": "MİNİATÜRK ÇADIR AÇIK OTOPARKI",
    "city": "İSTANBUL",
    "district": "BEYOĞLU",
    "barrier": "BARİYER",
    "latitude": "41.05713924506596",
    "longitude": "28.950548500000007"
  },
  {
    "id": "420",
    "name": "BAĞCILAR GÖZTEPE ZEMİN ALTI",
    "city": "İSTANBUL",
    "district": "BAĞCILAR",
    "barrier": "BARİYER",
    "latitude": "41.056848132717015",
    "longitude": "28.835725885774366"
  },
  {
    "id": "421",
    "name": "İSPARK TÜYAP AÇIK OTOPARK",
    "city": "İSTANBUL",
    "district": "BÜYÜKÇEKMECE",
    "barrier": "TERMİNAL",
    "latitude": "41.017876026153004",
    "longitude": "28.626994017782035"
  },
  {
    "id": "422",
    "name": "RUMELİ HİSARI SAHİL YOLU",
    "city": "İSTANBUL",
    "district": "SARIYER",
    "barrier": "BARİYER",
    "latitude": "41.086252457811405",
    "longitude": "29.056433823892583"
  },
  {
    "id": "423",
    "name": "BAYRAMPAŞA ALTINTEPSİ ZEMİN ALTI OTOPARKI",
    "city": "İSTANBUL",
    "district": "BAYRAMPAŞA",
    "barrier": "BARİYER",
    "latitude": "41.03928807453665",
    "longitude": "28.902811808934512"
  },
  {
    "id": "424",
    "name": "BAĞCILAR KENT MEYDANI ZEMİN ALTI PD OTOPARKI",
    "city": "İSTANBUL",
    "district": "BAĞCILAR",
    "barrier": "BARİYER",
    "latitude": "41.034509071089",
    "longitude": "28.855288070436387"
  },
  {
    "id": "425",
    "name": "YEŞİLCE ZEMİN ALTI KATLI OTOPARKI",
    "city": "İSTANBUL",
    "district": "KAĞITHANE",
    "barrier": "BARİYER",
    "latitude": "41.094264768838116",
    "longitude": "29.001584311916424"
  },
  {
    "id": "426",
    "name": "CEMAL KAMACI SPOR KOMPLEKSİ ZEMİN ALTI OTOPARKI",
    "city": "İSTANBUL",
    "district": "KAĞITHANE",
    "barrier": "BARİYER",
    "latitude": "41.0532518",
    "longitude": "28.9589186"
  },
  {
    "id": "427",
    "name": "BÜYÜKÇEKMECE METROBÜS DURAĞI YANI ZEMİNALTI PD OTOPARKI",
    "city": "İSTANBUL",
    "district": "BÜYÜKÇEKMECE",
    "barrier": "BARİYER",
    "latitude": "41.01786233639555",
    "longitude": "28.626996500030533"
  },
  {
    "id": "428",
    "name": "GAZİOSMANPAŞA ZEMİNALTI OTOPARKI",
    "city": "İSTANBUL",
    "district": "GAZİOSMANPAŞA",
    "barrier": "BARİYER",
    "latitude": "41.07962340311144",
    "longitude": "28.88584021641845"
  },
  {
    "id": "429",
    "name": "BEYOĞLU ÖRNEKTEPE ZEMİNALTI OTOPARKI",
    "city": "İSTANBUL",
    "district": "BEYOĞLU",
    "barrier": "BARİYER",
    "latitude": "41.054306",
    "longitude": "28.954806"
  },
  {
    "id": "430",
    "name": "BAHÇELİEVLER CUMHURİYET ZEMİN ALTI OTOPARKI",
    "city": "İSTANBUL",
    "district": "BAHÇELİEVLER",
    "barrier": "BARİYER",
    "latitude": "41.015097",
    "longitude": "28.857848"
  },
  {
    "id": "431",
    "name": "AVCILAR MUSTAFA KEMAL PAŞA METROBÜS DURAĞI YANI YOL ÜSTÜ OTOPARKI",
    "city": "İSTANBUL",
    "district": "AVCILAR",
    "barrier": "TERMİNAL",
    "latitude": "40.996472",
    "longitude": "28.705222"
  },
  {
    "id": "432",
    "name": "BAKIRKÖY SAHİL CEP OTOPARKI",
    "city": "İSTANBUL",
    "district": "BAKIRKÖY",
    "barrier": "TERMİNAL",
    "latitude": "40.97400221825821",
    "longitude": "28.875927040084964"
  },
  {
    "id": "433",
    "name": "BEYOĞLU GAZHANE BOSTAN SOKAK",
    "city": "İSTANBUL",
    "district": "BEYOĞLU",
    "barrier": "TERMİNAL",
    "latitude": "41.038908886829354",
    "longitude": "28.98821084948482"
  },
  {
    "id": "434",
    "name": "BAKIRKÖY SAHİL CEP OTOPARKI 2",
    "city": "İSTANBUL",
    "district": "BAKIRKÖY",
    "barrier": "TERMİNAL",
    "latitude": "40.97400655017397",
    "longitude": "28.8759341"
  },
  {
    "id": "435",
    "name": "ATATÜRK KENT ORMANI",
    "city": "İSTANBUL",
    "district": "SARIYER",
    "barrier": "BARİYER",
    "latitude": "41.13978542837934",
    "longitude": "29.030733483014945"
  },
  {
    "id": "436",
    "name": "BAĞCILAR DEVLET HASTANESİ YANI ZEMİNALTI OTOPARKI",
    "city": "İSTANBUL",
    "district": "BAĞCILAR",
    "barrier": "BARİYER",
    "latitude": "41.0312",
    "longitude": "28.8696"
  },
  {
    "id": "437",
    "name": "BAHÇELİEVLER ZAFER MAHALLESİ ZEMİNALTI OTOPARKI",
    "city": "İSTANBUL",
    "district": "BAHÇELİEVLER",
    "barrier": "BARİYER",
    "latitude": "41.00371105112402",
    "longitude": "28.835155639424823"
  },
  {
    "id": "438",
    "name": "SULTANAHMET AÇIK OTOPARKI",
    "city": "İSTANBUL",
    "district": "FATİH",
    "barrier": "BARİYER",
    "latitude": "41.0045",
    "longitude": "28.977889"
  },
  {
    "id": "439",
    "name": "GÜNGÖREN NİKAH DAİRESİ ZEMİN ALTI OTOPARKI",
    "city": "İSTANBUL",
    "district": "GÜNGÖREN",
    "barrier": "BARİYER",
    "latitude": "41.0363",
    "longitude": "28.8718"
  },
  {
    "id": "440",
    "name": "BEBEK İNŞİRAH CADDESİ",
    "city": "İSTANBUL",
    "district": "BEŞİKTAŞ",
    "barrier": "TERMİNAL",
    "latitude": "41.07552515336577",
    "longitude": "29.043323920067838"
  },
  {
    "id": "441",
    "name": "ADNAN MENDERES VATAN BULVARI",
    "city": "İSTANBUL",
    "district": "FATİH",
    "barrier": "TERMİNAL",
    "latitude": "41.01696269785651",
    "longitude": "28.936726572336998"
  },
  {
    "id": "442",
    "name": "KÜÇÜKÇEKMECE CENNET MAHALLESİ MEYDAN ZEMİN ALTI OTOPARKI",
    "city": "İSTANBUL",
    "district": "KÜÇÜKÇEKMECE",
    "barrier": "BARİYER",
    "latitude": "40.99073530337001",
    "longitude": "28.78314117119124"
  },
  {
    "id": "443",
    "name": "HÜRRİYET MAHALLESİ ZEMİN ALTI OTOPARKI",
    "city": "İSTANBUL",
    "district": "GAZİOSMANPAŞA",
    "barrier": "BARİYER",
    "latitude": "41.070806",
    "longitude": "28.895111"
  },
  {
    "id": "444",
    "name": "BAYRAMPAŞA SPOR KOMPLEKSİ ZEMİN ALTI OTOPARKI",
    "city": "İSTANBUL",
    "district": "BAYRAMPAŞA",
    "barrier": "BARİYER",
    "latitude": "41.047178843841486",
    "longitude": "28.91124400888699"
  },
  {
    "id": "445",
    "name": "ÇAM SOKAK",
    "city": "İSTANBUL",
    "district": "GÜNGÖREN",
    "barrier": "TERMİNAL",
    "latitude": "41.012417",
    "longitude": "28.889111"
  },
  {
    "id": "446",
    "name": "ZEYTİNBURNU SAHİL CEP OTOPARKI",
    "city": "İSTANBUL",
    "district": "ZEYTİNBURNU",
    "barrier": "TERMİNAL",
    "latitude": "40.9798",
    "longitude": "28.8985"
  },
  {
    "id": "447",
    "name": "BAĞCILAR HÜRRİYET MAHALLESİ ZEMİN ALTI OTOPARKI",
    "city": "İSTANBUL",
    "district": "BAĞCILAR",
    "barrier": "BARİYER",
    "latitude": "41.029111",
    "longitude": "28.833306"
  },
  {
    "id": "448",
    "name": "ESENLER HAVAALANI MAHALLESİ ZEMİN ALTI OTOPARKI",
    "city": "İSTANBUL",
    "district": "ESENLER",
    "barrier": "BARİYER",
    "latitude": "41.056194",
    "longitude": "28.867389"
  },
  {
    "id": "449",
    "name": "ALTINBOYNUZ SOSYAL TESİSLERİ",
    "city": "İSTANBUL",
    "district": "EYÜP",
    "barrier": "TERMİNAL",
    "latitude": "41.058",
    "longitude": "28.944694"
  },
  {
    "id": "450",
    "name": "SARIYER AYAZAĞA MAH. VADİ İSTANBUL ÖNÜ AÇIK OTOPARKI",
    "city": "İSTANBUL",
    "district": "SARIYER",
    "barrier": "BARİYER",
    "latitude": "41.110611",
    "longitude": "28.988111"
  },
  {
    "id": "451",
    "name": "SAMATYA SAHİL CEP OTOPARKI",
    "city": "İSTANBUL",
    "district": "FATİH",
    "barrier": "BARİYER",
    "latitude": "40.995389",
    "longitude": "28.932"
  },
  {
    "id": "452",
    "name": "BEYOĞLU FINDIKLI AÇIK OTOPARKI",
    "city": "İSTANBUL",
    "district": "BEYOĞLU",
    "barrier": "TERMİNAL",
    "latitude": "41.031111",
    "longitude": "28.988694"
  },
  {
    "id": "453",
    "name": "KAĞITHANE MERKEZ MAH. CENDERE CADDESİ AÇIK OTOPARKI",
    "city": "İSTANBUL",
    "district": "KAĞITHANE",
    "barrier": "TERMİNAL",
    "latitude": "41.102611",
    "longitude": "28.982306"
  },
  {
    "id": "454",
    "name": "BAĞCILAR YENİMAHALLE ZEMİN ALTI OTOPARKI",
    "city": "İSTANBUL",
    "district": "BAĞCILAR",
    "barrier": "BARİYER",
    "latitude": "41.050694",
    "longitude": "28.833131"
  },
  {
    "id": "455",
    "name": "PİYALEPAŞA MEYDANI ZEMİNALTI OTOPARKI",
    "city": "İSTANBUL",
    "district": "BEYOĞLU",
    "barrier": "BARİYER",
    "latitude": "41.0449713",
    "longitude": "28.9675175"
  },
  {
    "id": "456",
    "name": "İSPARK WEST İSTANBUL MARİNA AÇIK OTOPARKI 1",
    "city": "İSTANBUL",
    "district": "BEYLİKDÜZÜ",
    "barrier": "TERMİNAL",
    "latitude": "40.96356120936307",
    "longitude": "28.656609885328272"
  },
  {
    "id": "457",
    "name": "REFİK SAYDAM CADDESİ",
    "city": "İSTANBUL",
    "district": "BEYOĞLU",
    "barrier": "TERMİNAL",
    "latitude": "41.0335",
    "longitude": "28.9742"
  },
  {
    "id": "458",
    "name": "SARIYER BÜYÜKDERE FİDANLIĞI",
    "city": "İSTANBUL",
    "district": "SARIYER",
    "barrier": "BARİYER",
    "latitude": "41.1547234",
    "longitude": "29.0294821"
  },
  {
    "id": "459",
    "name": "SARIYER AHİ EVRAN CADDESİ",
    "city": "İSTANBUL",
    "district": "SARIYER",
    "barrier": "TERMİNAL",
    "latitude": "41.11745",
    "longitude": "29.023794"
  },
  {
    "id": "460",
    "name": "SARIYER MASLAK SÜMER SOKAK AÇIK OTOPARKI",
    "city": "İSTANBUL",
    "district": "SARIYER",
    "barrier": "TERMİNAL",
    "latitude": "41.109736524579866",
    "longitude": "29.01733340639019"
  },
  {
    "id": "461",
    "name": "YENİKÖY KÖYBAŞI CADDESİ 2",
    "city": "İSTANBUL",
    "district": "SARIYER",
    "barrier": "TERMİNAL",
    "latitude": "41.116143",
    "longitude": "29.059818"
  },
  {
    "id": "462",
    "name": "SARIYER AHİ EVRAN CADDESİ 2",
    "city": "İSTANBUL",
    "district": "SARIYER",
    "barrier": "TERMİNAL",
    "latitude": "41.116910818411",
    "longitude": "29.02405960398077"
  },
  {
    "id": "463",
    "name": "SARIYER MISIR CADDESİ",
    "city": "İSTANBUL",
    "district": "SARIYER",
    "barrier": "TERMİNAL",
    "latitude": "41.1486979724406",
    "longitude": "29.045315030520186"
  },
  {
    "id": "464",
    "name": "GAZİOSMANPAŞA MEYDANI VE YAŞAM MERKEZİ ZEMİN ALTI OTOPARKI",
    "city": "İSTANBUL",
    "district": "GAZİOSMANPAŞA",
    "barrier": "BARİYER",
    "latitude": "41.07961505536169",
    "longitude": "28.885845948804366"
  },
  {
    "id": "465",
    "name": "ŞİŞLİ SANTRAL AÇIK OTOPARKI",
    "city": "İSTANBUL",
    "district": "ŞİŞLİ",
    "barrier": "TERMİNAL",
    "latitude": "41.0432",
    "longitude": "28.9923"
  },
  {
    "id": "466",
    "name": "BAYRAMPAŞA KOCATEPE MAHALLESİ ZEMİN ALTI OTOPARKI",
    "city": "İSTANBUL",
    "district": "BAYRAMPAŞA",
    "barrier": "BARİYER",
    "latitude": "41.0545",
    "longitude": "28.896389"
  },
  {
    "id": "467",
    "name": "KABATAŞ TRANSFER MERKEZİ TURİZM OTOBÜS OTOPARKI",
    "city": "İSTANBUL",
    "district": "BEYOĞLU",
    "barrier": "BARİYER",
    "latitude": "41.033089865846065",
    "longitude": "28.987619408081173"
  },
  {
    "id": "468",
    "name": "MERCAN ALİ PAŞA SARAYI ZEMİN ALTI OTOPARKI",
    "city": "İSTANBUL",
    "district": "FATİH",
    "barrier": "TERMİNAL",
    "latitude": "41.0138506982402",
    "longitude": "28.966383883924344"
  },
  {
    "id": "469",
    "name": "4. LEVENT SERVİS VE TURİZM ARAÇLARI AÇIK OTOPARKI",
    "city": "İSTANBUL",
    "district": "ŞİŞLİ",
    "barrier": "BARİYER",
    "latitude": "41.083965886965366",
    "longitude": "29.005539388679388"
  },
  {
    "id": "470",
    "name": "BAB-I ALİ CADDESİ YOL ÜSTÜ OTOPARKI",
    "city": "İSTANBUL",
    "district": "FATİH",
    "barrier": "TERMİNAL",
    "latitude": "41.009194",
    "longitude": "28.973611"
  },
  {
    "id": "471",
    "name": "BOSTAN SOKAK YOL ÜSTÜ OTOPARKI",
    "city": "İSTANBUL",
    "district": "BAKIRKÖY",
    "barrier": "TERMİNAL",
    "latitude": "40.9593",
    "longitude": "28.8209"
  },
  {
    "id": "472",
    "name": "BAKIRKÖY İNCİRLİ CADDESİ YOL ÜSTÜ OTOPARKI",
    "city": "İSTANBUL",
    "district": "BAKIRKÖY",
    "barrier": "TERMİNAL",
    "latitude": "40.983704",
    "longitude": "28.875958"
  },
  {
    "id": "473",
    "name": "RAUF ORBAY CADDESİ",
    "city": "İSTANBUL",
    "district": "BAKIRKÖY",
    "barrier": "TERMİNAL",
    "latitude": "40.9764",
    "longitude": "28.8544"
  },
  {
    "id": "474",
    "name": "BAKIRKÖY BARUTHANE CEP",
    "city": "İSTANBUL",
    "district": "BAKIRKÖY",
    "barrier": "TERMİNAL",
    "latitude": "40.9757",
    "longitude": "28.8577"
  },
  {
    "id": "475",
    "name": "SÜLEYMANİYE İMARET SOKAK AÇIK OTOPARKI",
    "city": "İSTANBUL",
    "district": "FATİH",
    "barrier": "TERMİNAL",
    "latitude": "41.015899",
    "longitude": "28.960984"
  },
  {
    "id": "476",
    "name": "SARI BEYAZIT CADDESİ AÇIK OTOPARKI",
    "city": "İSTANBUL",
    "district": "FATİH",
    "barrier": "TERMİNAL",
    "latitude": "41.0178251",
    "longitude": "28.9608329"
  },
  {
    "id": "477",
    "name": "İMARET SABUNHANESİ SOKAK AÇIK OTOPARKI",
    "city": "İSTANBUL",
    "district": "FATİH",
    "barrier": "TERMİNAL",
    "latitude": "41.0183772",
    "longitude": "28.9600511"
  },
  {
    "id": "478",
    "name": "KATİP ÇELEBİ CADDESİ AÇIK OTOPARKI",
    "city": "İSTANBUL",
    "district": "FATİH",
    "barrier": "TERMİNAL",
    "latitude": "41.0179",
    "longitude": "28.9587"
  },
  {
    "id": "479",
    "name": "MOLLA ŞEMSETTİN SOKAK AÇIK OTOPARKI",
    "city": "İSTANBUL",
    "district": "FATİH",
    "barrier": "TERMİNAL",
    "latitude": "41.0171",
    "longitude": "28.9618"
  },
  {
    "id": "480",
    "name": "SARIYER TARABYA CADDESİ YOL ÜSTÜ OTOPARKI",
    "city": "İSTANBUL",
    "district": "SARIYER",
    "barrier": "TERMİNAL",
    "latitude": "41.139306",
    "longitude": "29.0555"
  },
  {
    "id": "481",
    "name": "BÜYÜKÇEKMECE MİMAR SİNAN DEVLET HASTANESİ ÖNÜ YOL ÜSTÜ OTOPARKI",
    "city": "İSTANBUL",
    "district": "BÜYÜKÇEKMECE",
    "barrier": "TERMİNAL",
    "latitude": "41.01701257214185",
    "longitude": "28.55597290408042"
  },
  {
    "id": "482",
    "name": "MÜHENDİS SOKAK AÇIK OTOPARKI 1",
    "city": "İSTANBUL",
    "district": "FATİH",
    "barrier": "TERMİNAL",
    "latitude": "41.017",
    "longitude": "28.959306"
  },
  {
    "id": "483",
    "name": "MÜHENDİS SOKAK AÇIK OTOPARKI 2",
    "city": "İSTANBUL",
    "district": "FATİH",
    "barrier": "TERMİNAL",
    "latitude": "41.0175",
    "longitude": "28.959306"
  },
  {
    "id": "484",
    "name": "YOĞURTÇUOĞLU SOKAK OTOPARKI",
    "city": "İSTANBUL",
    "district": "FATİH",
    "barrier": "TERMİNAL",
    "latitude": "41.016889",
    "longitude": "28.961306"
  },
  {
    "id": "485",
    "name": "NERGİZ OTOPARK",
    "city": "ANKARA",
    "district": "ALTINDAĞ",
    "barrier": "-",
    "latitude": "39.945395",
    "longitude": "32.855629"
  },
  {
    "id": "486",
    "name": "ANKARA KIZILAY OTOPARK",
    "city": "ANKARA",
    "district": "ÇANKAYA",
    "barrier": "-",
    "latitude": "39.924171",
    "longitude": "32.851784"
  },
  {
    "id": "487",
    "name": "TUNA OTOPARK",
    "city": "ANKARA",
    "district": "ÇANKAYA",
    "barrier": "-",
    "latitude": "39.912936",
    "longitude": "32.857656"
  },
  {
    "id": "488",
    "name": "7 KAPI OTOPARK",
    "city": "ANKARA",
    "district": "BAHÇELİEVLER",
    "barrier": "-",
    "latitude": "39.9203863702896",
    "longitude": "32.825898192392415"
  },
  {
    "id": "489",
    "name": "ENGİN OTOPARK",
    "city": "İZMİR",
    "district": "BORNOVA",
    "barrier": "-",
    "latitude": "38.467338",
    "longitude": "27.112841"
  },
  {
    "id": "490",
    "name": "REİS OTOPARK",
    "city": "İZMİR",
    "district": "KONAK",
    "barrier": "-",
    "latitude": "38.437512",
    "longitude": "27.145654"
  },
  {
    "id": "491",
    "name": "RİTİM İSTANBUL AUTO CLUB OTOPARK",
    "city": "İSTANBUL",
    "district": "KADIKÖY",
    "barrier": "-",
    "latitude": "40.92207114105821",
    "longitude": "29.158240447365298"
  },
  {
    "id": "492",
    "name": "ROYAL 61 KAPALI OTOPARK",
    "city": "İSTANBUL",
    "district": "KADIKÖY",
    "barrier": "-",
    "latitude": "40.993293",
    "longitude": "29.027729"
  },
  {
    "id": "493",
    "name": "AKGÜN OTOPARK",
    "city": "İZMİR",
    "district": "URLA",
    "barrier": "-",
    "latitude": "38.323227",
    "longitude": "26.764582"
  },
  {
    "id": "494",
    "name": "KAPLAN OTOPARK",
    "city": "ANKARA",
    "district": "SİNCAN",
    "barrier": "-",
    "latitude": "39.95742",
    "longitude": "32.550652"
  },
  {
    "id": "495",
    "name": "YAMAN OTOPARK",
    "city": "İSTANBUL",
    "district": "EYÜP",
    "barrier": "-",
    "latitude": "41.076675",
    "longitude": "28.949484"
  },
  {
    "id": "496",
    "name": "ÇAMLIK OTOPARK",
    "city": "İSTANBUL",
    "district": "BEYLİKDÜZÜ",
    "barrier": "-",
    "latitude": "41.015141",
    "longitude": "28.639084"
  },
  {
    "id": "497",
    "name": "DENİZ OTOPARK",
    "city": "İSTANBUL",
    "district": "TOPCULAR",
    "barrier": "-",
    "latitude": "41.043381",
    "longitude": "28.917635"
  },
  {
    "id": "498",
    "name": "RODİN OTOPARK",
    "city": "İSTANBUL",
    "district": "BAĞCILAR",
    "barrier": "-",
    "latitude": "41.045711",
    "longitude": "28.848505"
  },
  {
    "id": "499",
    "name": "ÇETİN OTOPARK",
    "city": "ANKARA",
    "district": "ÇANKAYA",
    "barrier": "-",
    "latitude": "39.944971",
    "longitude": "32.853522"
  },
  {
    "id": "500",
    "name": "ŞİRİN KATLI OTOPARK",
    "city": "İSTANBUL",
    "district": "FATİH",
    "barrier": "-",
    "latitude": "41.016137",
    "longitude": "28.967157"
  },
  {
    "id": "501",
    "name": "SÜLEYMANİYE OTOPARK",
    "city": "İSTANBUL",
    "district": "FATİH",
    "barrier": "-",
    "latitude": "41.01826",
    "longitude": "28.962198"
  },
  {
    "id": "502",
    "name": "BEY OTOPARK",
    "city": "İZMİR",
    "district": "BALÇOVA",
    "barrier": "-",
    "latitude": "38.393588",
    "longitude": "27.03641"
  },
  {
    "id": "503",
    "name": "ANKO OTOPARK",
    "city": "ANKARA",
    "district": "ÇANKAYA",
    "barrier": "-",
    "latitude": "39.923671",
    "longitude": "32.851874"
  },
  {
    "id": "504",
    "name": "AVCI OTOPARK",
    "city": "İZMİR",
    "district": "KONAK",
    "barrier": "-",
    "latitude": "38.432186",
    "longitude": "27.147522"
  },
  {
    "id": "505",
    "name": "23 NİSAN KATLI OTOPARK",
    "city": "ANKARA",
    "district": "ALTINDAĞ",
    "barrier": "-",
    "latitude": "39.969336",
    "longitude": "32.88153"
  },
  {
    "id": "506",
    "name": "GARAJ İSTANBUL OTOPARK",
    "city": "İSTANBUL",
    "district": "BAKIRKÖY",
    "barrier": "-",
    "latitude": "40.990991",
    "longitude": "28.883723"
  }
]